[
 {
   "postalCode": 10044,
   "cbNumber": "000100-6",
   "pNumber": 100000,
   "name": "台北北門郵局",
   "cName": "台北901支",
   "city": "台北市",
   "district": "中正區",
   "address": "忠孝西路一段120號1樓",
   "longitude": 121.511431,
   "latitude": 25.047355
 },
 {
   "postalCode": 10064,
   "cbNumber": "000101-0",
   "pNumber": 100001,
   "name": "台北東門郵局",
   "cName": "台北1支",
   "city": "台北市",
   "district": "中正區",
   "address": "信義路二段163號",
   "longitude": 121.528922,
   "latitude": 25.03408
 },
 {
   "postalCode": 10846,
   "cbNumber": "000102-3",
   "pNumber": 100002,
   "name": "台北漢中街郵局",
   "cName": "台北2支",
   "city": "台北市",
   "district": "萬華區",
   "address": "漢中街173號",
   "longitude": 121.507005,
   "latitude": 25.04132
 },
 {
   "postalCode": 10847,
   "cbNumber": "000103-7",
   "pNumber": 100003,
   "name": "台北西園郵局",
   "cName": "台北3支",
   "city": "台北市",
   "district": "萬華區",
   "address": "長沙街二段156、158、160、162號",
   "longitude": 121.501031,
   "latitude": 25.040769
 },
 {
   "postalCode": 10851,
   "cbNumber": "000104-1",
   "pNumber": 100004,
   "name": "台北龍山郵局",
   "cName": "台北4支",
   "city": "台北市",
   "district": "萬華區",
   "address": "廣州街67號",
   "longitude": 121.504565,
   "latitude": 25.036559
 },
 {
   "postalCode": 10075,
   "cbNumber": "000105-4",
   "pNumber": 100005,
   "name": "台北南海郵局",
   "cName": "台北5支",
   "city": "台北市",
   "district": "中正區",
   "address": "重慶南路二段43號",
   "longitude": 121.514659,
   "latitude": 25.031833
 },
 {
   "postalCode": 10083,
   "cbNumber": "000106-8",
   "pNumber": 100006,
   "name": "台北螢橋郵局",
   "cName": "台北6支",
   "city": "台北市",
   "district": "中正區",
   "address": "廈門街76號",
   "longitude": 121.517368,
   "latitude": 25.02463
 },
 {
   "postalCode": 10644,
   "cbNumber": "000107-1",
   "pNumber": 100007,
   "name": "台北青田郵局",
   "cName": "台北7支",
   "city": "台北市",
   "district": "大安區",
   "address": "和平東路一段155號",
   "longitude": 121.531151,
   "latitude": 25.026851
 },
 {
   "postalCode": 10041,
   "cbNumber": "000108-5",
   "pNumber": 100008,
   "name": "台北復興橋郵局",
   "cName": "台北8支",
   "city": "台北市",
   "district": "中正區",
   "address": "忠孝西路一段1號",
   "longitude": 121.519409,
   "latitude": 25.046041
 },
 {
   "postalCode": 10444,
   "cbNumber": "000109-9",
   "pNumber": 100009,
   "name": "台北中山郵局",
   "cName": "台北9支",
   "city": "台北市",
   "district": "中山區",
   "address": "中山北路一段142號",
   "longitude": 121.522121,
   "latitude": 25.051515
 },
 {
   "postalCode": 10343,
   "cbNumber": "000110-1",
   "pNumber": 100010,
   "name": "台北迪化街郵局",
   "cName": "台北10支",
   "city": "台北市",
   "district": "大同區",
   "address": "迪化街一段38號",
   "longitude": 121.510023,
   "latitude": 25.054805
 },
 {
   "postalCode": 10356,
   "cbNumber": "000111-4",
   "pNumber": 100011,
   "name": "台北圓環郵局",
   "cName": "台北11支",
   "city": "台北市",
   "district": "大同區",
   "address": "重慶北路二段15號",
   "longitude": 121.514425,
   "latitude": 25.054665
 },
 {
   "postalCode": 10051,
   "cbNumber": "000112-8",
   "pNumber": 100012,
   "name": "行政院郵局",
   "cName": "台北12支",
   "city": "台北市",
   "district": "中正區",
   "address": "北平東路2號(行政院內)",
   "longitude": 121.521525,
   "latitude": 25.04687
 },
 {
   "postalCode": 10091,
   "cbNumber": "000113-1",
   "pNumber": 100013,
   "name": "台北公館郵局",
   "cName": "台北13支",
   "city": "台北市",
   "district": "中正區",
   "address": "羅斯福路四段74號(B1)",
   "longitude": 121.534035,
   "latitude": 25.015428
 },
 {
   "postalCode": 10048,
   "cbNumber": "000114-5",
   "pNumber": 100014,
   "name": "國史館郵局",
   "cName": "台北14支",
   "city": "台北市",
   "district": "中正區",
   "address": "博愛路168號之1",
   "longitude": 121.511064,
   "latitude": 25.039789
 },
 {
   "postalCode": 10048,
   "cbNumber": "000115-9",
   "pNumber": 100015,
   "name": "總統府郵局",
   "cName": "台北15支",
   "city": "台北市",
   "district": "中正區",
   "address": "重慶南路一段122號(總統府內)",
   "longitude": 121.511596,
   "latitude": 25.039824
 },
 {
   "postalCode": 10449,
   "cbNumber": "000117-6",
   "pNumber": 100017,
   "name": "台北雙連郵局",
   "cName": "台北17支",
   "city": "台北市",
   "district": "中山區",
   "address": "中山北路二段96號",
   "longitude": 121.522548,
   "latitude": 25.059406
 },
 {
   "postalCode": 10566,
   "cbNumber": "000118-0",
   "pNumber": 100018,
   "name": "台北松山郵局",
   "cName": "台北18支",
   "city": "台北市",
   "district": "松山區",
   "address": "八德路四段626號",
   "longitude": 121.574143,
   "latitude": 25.049869
 },
 {
   "postalCode": 10048,
   "cbNumber": "000120-5",
   "pNumber": 100020,
   "name": "台北法院郵局",
   "cName": "台北20支",
   "city": "台北市",
   "district": "中正區",
   "address": "博愛路127號(司法大廈內)",
   "longitude": 121.511139,
   "latitude": 25.038072
 },
 {
   "postalCode": 10357,
   "cbNumber": "000121-9",
   "pNumber": 100021,
   "name": "台北台北橋郵局",
   "cName": "台北21支",
   "city": "台北市",
   "district": "大同區",
   "address": "民權西路246號",
   "longitude": 121.512683,
   "latitude": 25.062796
 },
 {
   "postalCode": 10610,
   "cbNumber": "000122-2",
   "pNumber": 100022,
   "name": "台北師大郵局",
   "cName": "台北22支",
   "city": "台北市",
   "district": "大安區",
   "address": "和平東路一段162號",
   "longitude": 121.528313,
   "latitude": 25.025924
 },
 {
   "postalCode": 10617,
   "cbNumber": "000123-6",
   "pNumber": 100023,
   "name": "台大郵局",
   "cName": "台北23支",
   "city": "台北市",
   "district": "大安區",
   "address": "羅斯福路四段1號(台灣大學內)",
   "longitude": 121.537433,
   "latitude": 25.018646
 },
 {
   "postalCode": 10651,
   "cbNumber": "000124-0",
   "pNumber": 100024,
   "name": "台北仁愛路郵局",
   "cName": "台北24支",
   "city": "台北市",
   "district": "大安區",
   "address": "仁愛路三段47號",
   "longitude": 121.535569,
   "latitude": 25.038628
 },
 {
   "postalCode": 10051,
   "cbNumber": "000125-3",
   "pNumber": 100025,
   "name": "立法院郵局",
   "cName": "台北25支",
   "city": "台北市",
   "district": "中正區",
   "address": "濟南路一段1號",
   "longitude": 121.519897,
   "latitude": 25.043253
 },
 {
   "postalCode": 10682,
   "cbNumber": "000126-7",
   "pNumber": 100026,
   "name": "台北信維郵局",
   "cName": "台北26支",
   "city": "台北市",
   "district": "大安區",
   "address": "信義路四段74號",
   "longitude": 121.546419,
   "latitude": 25.033141
 },
 {
   "postalCode": 10479,
   "cbNumber": "000127-1",
   "pNumber": 100027,
   "name": "台北建北郵局",
   "cName": "台北27支",
   "city": "台北市",
   "district": "中山區",
   "address": "建國北路二段33號",
   "longitude": 121.537185,
   "latitude": 25.055026
 },
 {
   "postalCode": 11163,
   "cbNumber": "000128-4",
   "pNumber": 100028,
   "name": "士林郵局",
   "cName": "台北28支",
   "city": "台北市",
   "district": "士林區",
   "address": "文林路162號",
   "longitude": 121.526882,
   "latitude": 25.089289
 },
 {
   "postalCode": 11670,
   "cbNumber": "000129-8",
   "pNumber": 100029,
   "name": "文山景美郵局",
   "cName": "台北29支",
   "city": "台北市",
   "district": "文山區",
   "address": "羅斯福路六段389號",
   "longitude": 121.540901,
   "latitude": 24.992446
 },
 {
   "postalCode": 10084,
   "cbNumber": "000130-0",
   "pNumber": 100030,
   "name": "台北古亭郵局",
   "cName": "台北30支",
   "city": "台北市",
   "district": "中正區",
   "address": "南昌路二段232號",
   "longitude": 121.524667,
   "latitude": 25.023693
 },
 {
   "postalCode": 10869,
   "cbNumber": "000131-3",
   "pNumber": 100031,
   "name": "台北東園郵局",
   "cName": "台北31支",
   "city": "台北市",
   "district": "萬華區",
   "address": "東園街148、150號",
   "longitude": 121.497552,
   "latitude": 25.023318
 },
 {
   "postalCode": 10666,
   "cbNumber": "000132-7",
   "pNumber": 100032,
   "name": "台北光華郵局",
   "cName": "台北32支",
   "city": "台北市",
   "district": "大安區",
   "address": "新生北路一段7之2號",
   "longitude": 121.533162,
   "latitude": 25.045154
 },
 {
   "postalCode": 10047,
   "cbNumber": "000133-1",
   "pNumber": 100033,
   "name": "台北南陽郵局",
   "cName": "台北33支",
   "city": "台北市",
   "district": "中正區",
   "address": "信陽街8號",
   "longitude": 121.516071,
   "latitude": 25.044638
 },
 {
   "postalCode": 10488,
   "cbNumber": "000134-4",
   "pNumber": 100034,
   "name": "台北中崙郵局",
   "cName": "台北34支",
   "city": "台北市",
   "district": "中山區",
   "address": "復興北路40號",
   "longitude": 121.543718,
   "latitude": 25.049404
 },
 {
   "postalCode": 10862,
   "cbNumber": "000135-8",
   "pNumber": 100035,
   "name": "台北莒光郵局",
   "cName": "台北35支",
   "city": "台北市",
   "district": "萬華區",
   "address": "莒光路210號",
   "longitude": 121.501124,
   "latitude": 25.031396
 },
 {
   "postalCode": 10555,
   "cbNumber": "000136-1",
   "pNumber": 100036,
   "name": "台北光復郵局",
   "cName": "台北36支",
   "city": "台北市",
   "district": "松山區",
   "address": "八德路三段240號",
   "longitude": 121.557611,
   "latitude": 25.047994
 },
 {
   "postalCode": 10465,
   "cbNumber": "000137-5",
   "pNumber": 100037,
   "name": "台北大直郵局",
   "cName": "台北37支",
   "city": "台北市",
   "district": "中山區",
   "address": "北安路518巷14弄18、20號",
   "longitude": 121.545445,
   "latitude": 25.078971
 },
 {
   "postalCode": 10044,
   "cbNumber": "000139-2",
   "pNumber": 100039,
   "name": "台北重南郵局",
   "cName": "台北39支",
   "city": "台北市",
   "district": "中正區",
   "address": "忠孝西路一段120號1樓",
   "longitude": 121.511366,
   "latitude": 25.046834
 },
 {
   "postalCode": 11165,
   "cbNumber": "000142-1",
   "pNumber": 100042,
   "name": "士林社子郵局",
   "cName": "台北42支",
   "city": "台北市",
   "district": "士林區",
   "address": "延平北路五段150號",
   "longitude": 121.510448,
   "latitude": 25.082442
 },
 {
   "postalCode": 10692,
   "cbNumber": "000143-5",
   "pNumber": 100043,
   "name": "台北三張犁郵局",
   "cName": "台北43支",
   "city": "台北市",
   "district": "大安區",
   "address": "信義路四段337號",
   "longitude": 121.556403,
   "latitude": 25.033252
 },
 {
   "postalCode": 10670,
   "cbNumber": "000144-9",
   "pNumber": 100044,
   "name": "台北成功郵局",
   "cName": "台北44支",
   "city": "台北市",
   "district": "大安區",
   "address": "四維路198巷38弄12號",
   "longitude": 121.545403,
   "latitude": 25.026465
 },
 {
   "postalCode": 10548,
   "cbNumber": "000145-2",
   "pNumber": 100045,
   "name": "松山機場郵局",
   "cName": "台北45支",
   "city": "台北市",
   "district": "松山區",
   "address": "敦化北路340-9號(松山機場內 )",
   "longitude": 121.550858,
   "latitude": 25.063785
 },
 {
   "postalCode": 10455,
   "cbNumber": "000146-6",
   "pNumber": 100046,
   "name": "台北長安郵局",
   "cName": "台北46支",
   "city": "台北市",
   "district": "中山區",
   "address": "長安東路二段97號",
   "longitude": 121.53485,
   "latitude": 25.048551
 },
 {
   "postalCode": 10364,
   "cbNumber": "000147-0",
   "pNumber": 100047,
   "name": "台北大同郵局",
   "cName": "台北47支",
   "city": "台北市",
   "district": "大同區",
   "address": "承德路三段83號",
   "longitude": 121.518614,
   "latitude": 25.065868
 },
 {
   "postalCode": 10569,
   "cbNumber": "000148-3",
   "pNumber": 100048,
   "name": "台北西松郵局",
   "cName": "台北48支",
   "city": "台北市",
   "district": "松山區",
   "address": "南京東路五段311號",
   "longitude": 121.566694,
   "latitude": 25.051579
 },
 {
   "postalCode": 11008,
   "cbNumber": "000149-7",
   "pNumber": 100049,
   "name": "台北市府郵局",
   "cName": "台北49支",
   "city": "台北市",
   "district": "信義區",
   "address": "市府路1號地下2樓(台北市政府內)",
   "longitude": 121.563781,
   "latitude": 25.037536
 },
 {
   "postalCode": 10371,
   "cbNumber": "000150-9",
   "pNumber": 100050,
   "name": "台北大龍峒郵局",
   "cName": "台北50支",
   "city": "台北市",
   "district": "大同區",
   "address": "重慶北路三段338號",
   "longitude": 121.513628,
   "latitude": 25.076127
 },
 {
   "postalCode": 11086,
   "cbNumber": "000151-2",
   "pNumber": 100051,
   "name": "台北松德郵局",
   "cName": "台北51支",
   "city": "台北市",
   "district": "信義區",
   "address": "松德路300號",
   "longitude": 121.574276,
   "latitude": 25.032029
 },
 {
   "postalCode": 11151,
   "cbNumber": "000152-6",
   "pNumber": 100052,
   "name": "士林天母郵局",
   "cName": "台北52支",
   "city": "台北市",
   "district": "士林區",
   "address": "中山北路七段130號",
   "longitude": 121.532146,
   "latitude": 25.122812
 },
 {
   "postalCode": 10691,
   "cbNumber": "000153-0",
   "pNumber": 100053,
   "name": "台北光武郵局",
   "cName": "台北53支",
   "city": "台北市",
   "district": "大安區",
   "address": "大安路一段52巷16號",
   "longitude": 121.545601,
   "latitude": 25.043027
 },
 {
   "postalCode": 11050,
   "cbNumber": "000154-3",
   "pNumber": 100054,
   "name": "台北吳興郵局",
   "cName": "台北54支",
   "city": "台北市",
   "district": "信義區",
   "address": "莊敬路418號之1",
   "longitude": 121.566366,
   "latitude": 25.026957
 },
 {
   "postalCode": 10468,
   "cbNumber": "000155-7",
   "pNumber": 100055,
   "name": "台北松江路郵局",
   "cName": "台北55支",
   "city": "台北市",
   "district": "中山區",
   "address": "松江路366號",
   "longitude": 121.533055,
   "latitude": 25.062222
 },
 {
   "postalCode": 10572,
   "cbNumber": "000156-1",
   "pNumber": 100056,
   "name": "台北延壽郵局",
   "cName": "台北56支",
   "city": "台北市",
   "district": "松山區",
   "address": "民生東路五段12號",
   "longitude": 121.555969,
   "latitude": 25.058159
 },
 {
   "postalCode": 10674,
   "cbNumber": "000157-4",
   "pNumber": 100057,
   "name": "台北六張犁郵局",
   "cName": "台北57支",
   "city": "台北市",
   "district": "大安區",
   "address": "和平東路三段208號",
   "longitude": 121.553823,
   "latitude": 25.022872
 },
 {
   "postalCode": 10066,
   "cbNumber": "000158-8",
   "pNumber": 100058,
   "name": "台北小南門郵局",
   "cName": "台北58支",
   "city": "台北市",
   "district": "中正區",
   "address": "廣州街15號",
   "longitude": 121.508111,
   "latitude": 25.03579
 },
 {
   "postalCode": 11143,
   "cbNumber": "000159-1",
   "pNumber": 100059,
   "name": "故宮郵局",
   "cName": "台北59支",
   "city": "台北市",
   "district": "士林區",
   "address": "至善路二段221號(故宮博物院內)",
   "longitude": 121.548764,
   "latitude": 25.102015
 },
 {
   "postalCode": 10359,
   "cbNumber": "000161-7",
   "pNumber": 100061,
   "name": "台北保安郵局",
   "cName": "台北61支",
   "city": "台北市",
   "district": "大同區",
   "address": "重慶北路二段183號",
   "longitude": 121.513758,
   "latitude": 25.059877
 },
 {
   "postalCode": 10041,
   "cbNumber": "000164-8",
   "pNumber": 100064,
   "name": "台北火車站郵局",
   "cName": "台北64支",
   "city": "台北市",
   "district": "中正區",
   "address": "北平西路3號(台北火車站內)",
   "longitude": 121.517544,
   "latitude": 25.047161
 },
 {
   "postalCode": 10460,
   "cbNumber": "000165-1",
   "pNumber": 100065,
   "name": "台北圓山郵局",
   "cName": "台北65支",
   "city": "台北市",
   "district": "中山區",
   "address": "林森北路573號",
   "longitude": 121.525811,
   "latitude": 25.065024
 },
 {
   "postalCode": 10459,
   "cbNumber": "000167-9",
   "pNumber": 100067,
   "name": "台北長春路郵局",
   "cName": "台北67支",
   "city": "台北市",
   "district": "中山區",
   "address": "長春路129號之2",
   "longitude": 121.530632,
   "latitude": 25.055003
 },
 {
   "postalCode": 10449,
   "cbNumber": "000168-2",
   "pNumber": 100068,
   "name": "台北民權郵局",
   "cName": "台北68支",
   "city": "台北市",
   "district": "中山區",
   "address": "民權西路22號",
   "longitude": 121.521633,
   "latitude": 25.062578
 },
 {
   "postalCode": 10849,
   "cbNumber": "000170-8",
   "pNumber": 100070,
   "name": "台北老松郵局",
   "cName": "台北70支",
   "city": "台北市",
   "district": "萬華區",
   "address": "桂林路51號",
   "longitude": 121.504011,
   "latitude": 25.038076
 },
 {
   "postalCode": 10091,
   "cbNumber": "000171-1",
   "pNumber": 100071,
   "name": "台北汀州郵局",
   "cName": "台北71支",
   "city": "台北市",
   "district": "中正區",
   "address": "汀州路三段301號",
   "longitude": 121.53588,
   "latitude": 25.011795
 },
 {
   "postalCode": 10070,
   "cbNumber": "000172-5",
   "pNumber": 100072,
   "name": "台北龍口郵局",
   "cName": "台北72支",
   "city": "台北市",
   "district": "中正區",
   "address": "和平西路二段68號",
   "longitude": 121.511598,
   "latitude": 25.029097
 },
 {
   "postalCode": 11162,
   "cbNumber": "000173-9",
   "pNumber": 100073,
   "name": "士林中正路郵局",
   "cName": "台北73支",
   "city": "台北市",
   "district": "士林區",
   "address": "中正路420號",
   "longitude": 121.51952,
   "latitude": 25.093549
 },
 {
   "postalCode": 10872,
   "cbNumber": "000174-2",
   "pNumber": 100074,
   "name": "台北萬大路郵局",
   "cName": "台北74支",
   "city": "台北市",
   "district": "萬華區",
   "address": "萬大路524號",
   "longitude": 121.496783,
   "latitude": 25.018886
 },
 {
   "postalCode": 11689,
   "cbNumber": "000175-6",
   "pNumber": 100075,
   "name": "文山興隆路郵局",
   "cName": "台北75支",
   "city": "台北市",
   "district": "文山區",
   "address": "興隆路二段171號",
   "longitude": 121.548895,
   "latitude": 25.000715
 },
 {
   "postalCode": 11169,
   "cbNumber": "000177-3",
   "pNumber": 100077,
   "name": "士林後港郵局",
   "cName": "台北77支",
   "city": "台北市",
   "district": "士林區",
   "address": "福港街149巷2號",
   "longitude": 121.518299,
   "latitude": 25.087416
 },
 {
   "postalCode": 11066,
   "cbNumber": "000178-7",
   "pNumber": 100078,
   "name": "台北永吉郵局",
   "cName": "台北78支",
   "city": "台北市",
   "district": "信義區",
   "address": "永吉路168號1樓",
   "longitude": 121.571012,
   "latitude": 25.045516
 },
 {
   "postalCode": 10857,
   "cbNumber": "000179-1",
   "pNumber": 100079,
   "name": "台北華江橋郵局",
   "cName": "台北79支",
   "city": "台北市",
   "district": "萬華區",
   "address": "和平西路三段310號",
   "longitude": 121.493029,
   "latitude": 25.035297
 },
 {
   "postalCode": 11071,
   "cbNumber": "000180-2",
   "pNumber": 100080,
   "name": "台北逸仙郵局",
   "cName": "台北80支",
   "city": "台北市",
   "district": "信義區",
   "address": "逸仙路46號",
   "longitude": 121.56166,
   "latitude": 25.040358
 },
 {
   "postalCode": 10595,
   "cbNumber": "000181-6",
   "pNumber": 100081,
   "name": "台北體育場郵局",
   "cName": "台北81支",
   "city": "台北市",
   "district": "松山區",
   "address": "儲匯：南京東路三段346號  郵務：南京東路三段346號後棟",
   "longitude": 121.548497,
   "latitude": 25.051564
 },
 {
   "postalCode": 10655,
   "cbNumber": "000182-0",
   "pNumber": 100082,
   "name": "台北正義郵局",
   "cName": "台北82支",
   "city": "台北市",
   "district": "大安區",
   "address": "忠孝東路三段150、152、154號",
   "longitude": 121.538303,
   "latitude": 25.041511
 },
 {
   "postalCode": 11148,
   "cbNumber": "000183-3",
   "pNumber": 100083,
   "name": "士林蘭雅郵局",
   "cName": "台北83支",
   "city": "台北市",
   "district": "士林區",
   "address": "忠誠路一段52號",
   "longitude": 121.526931,
   "latitude": 25.104639
 },
 {
   "postalCode": 10053,
   "cbNumber": "000184-7",
   "pNumber": 100084,
   "name": "台北杭南郵局",
   "cName": "台北84支",
   "city": "台北市",
   "district": "中正區",
   "address": "杭州南路一段23號之3",
   "longitude": 121.526462,
   "latitude": 25.042273
 },
 {
   "postalCode": 11102,
   "cbNumber": "000186-4",
   "pNumber": 100086,
   "name": "東吳大學郵局",
   "cName": "台北86支",
   "city": "台北市",
   "district": "士林區",
   "address": "臨溪路70號(東吳大學內)",
   "longitude": 121.546299,
   "latitude": 25.094071
 },
 {
   "postalCode": 10589,
   "cbNumber": "000187-8",
   "pNumber": 100087,
   "name": "台北民生郵局",
   "cName": "台北87支",
   "city": "台北市",
   "district": "松山區",
   "address": "民生東路五段191號",
   "longitude": 121.565703,
   "latitude": 25.059215
 },
 {
   "postalCode": 10607,
   "cbNumber": "000190-7",
   "pNumber": 100090,
   "name": "台灣科大郵局",
   "cName": "台北90支",
   "city": "台北市",
   "district": "大安區",
   "address": "基隆路四段43號(台灣科技大學內)",
   "longitude": 121.542483,
   "latitude": 25.013933
 },
 {
   "postalCode": 10603,
   "cbNumber": "000191-1",
   "pNumber": 100091,
   "name": "台北金南郵局",
   "cName": "台北91支",
   "city": "台北市",
   "district": "大安區",
   "address": "愛國東路216號",
   "longitude": 121.524565,
   "latitude": 25.031831
 },
 {
   "postalCode": 10048,
   "cbNumber": "000192-4",
   "pNumber": 100092,
   "name": "台北中正堂郵局",
   "cName": "台北92支",
   "city": "台北市",
   "district": "中正區",
   "address": "中山南路21號(中正紀念堂內)",
   "longitude": 121.52211,
   "latitude": 25.035107
 },
 {
   "postalCode": 11681,
   "cbNumber": "000193-8",
   "pNumber": 100093,
   "name": "文山武功郵局",
   "cName": "台北93支",
   "city": "台北市",
   "district": "文山區",
   "address": "羅斯福路五段147號",
   "longitude": 121.539054,
   "latitude": 25.004078
 },
 {
   "postalCode": 10881,
   "cbNumber": "000195-5",
   "pNumber": 100095,
   "name": "台北青年郵局",
   "cName": "台北95支",
   "city": "台北市",
   "district": "萬華區",
   "address": "國興路34、36、38號",
   "longitude": 121.508037,
   "latitude": 25.024785
 },
 {
   "postalCode": 10680,
   "cbNumber": "000196-9",
   "pNumber": 100096,
   "name": "台北安和郵局",
   "cName": "台北96支",
   "city": "台北市",
   "district": "大安區",
   "address": "安和路二段61、63號",
   "longitude": 121.552661,
   "latitude": 25.030837
 },
 {
   "postalCode": 11677,
   "cbNumber": "000197-2",
   "pNumber": 100097,
   "name": "文山萬盛郵局",
   "cName": "台北97支",
   "city": "台北市",
   "district": "文山區",
   "address": "汀州路四段88號(師大分部內)",
   "longitude": 121.536506,
   "latitude": 25.008077
 },
 {
   "postalCode": 11061,
   "cbNumber": "000199-0",
   "pNumber": 100099,
   "name": "台北永春郵局",
   "cName": "台北99支",
   "city": "台北市",
   "district": "信義區",
   "address": "忠孝東路五段464、466號",
   "longitude": 121.576702,
   "latitude": 25.040682
 },
 {
   "postalCode": 10051,
   "cbNumber": "000200-1",
   "pNumber": 100100,
   "name": "監察院郵局",
   "cName": "台北100支",
   "city": "台北市",
   "district": "中正區",
   "address": "忠孝東路一段2號(監察院東側，面向鎮江街)",
   "longitude": 121.521362,
   "latitude": 25.044816
 },
 {
   "postalCode": 10543,
   "cbNumber": "000201-5",
   "pNumber": 100101,
   "name": "台北榮星郵局",
   "cName": "台北101支",
   "city": "台北市",
   "district": "松山區",
   "address": "民權東路三段124之1、2號",
   "longitude": 121.545914,
   "latitude": 25.06188
 },
 {
   "postalCode": 10466,
   "cbNumber": "000204-6",
   "pNumber": 100104,
   "name": "台北北安郵局",
   "cName": "台北104支",
   "city": "台北市",
   "district": "中山區",
   "address": "北安路630巷10號",
   "longitude": 121.549846,
   "latitude": 25.082668
 },
 {
   "postalCode": 11154,
   "cbNumber": "000205-0",
   "pNumber": 100105,
   "name": "士林芝山郵局",
   "cName": "台北105支",
   "city": "台北市",
   "district": "士林區",
   "address": "士東路286巷36號",
   "longitude": 121.537413,
   "latitude": 25.11143
 },
 {
   "postalCode": 11154,
   "cbNumber": "000206-3",
   "pNumber": 100106,
   "name": "士林法院郵局",
   "cName": "台北106支",
   "city": "台北市",
   "district": "士林區",
   "address": "士東路190號",
   "longitude": 121.533128,
   "latitude": 25.111961
 },
 {
   "postalCode": 10042,
   "cbNumber": "000207-7",
   "pNumber": 100107,
   "name": "台北中山堂郵局",
   "cName": "台北107支",
   "city": "台北市",
   "district": "中正區",
   "address": "中華路一段53號",
   "longitude": 121.509104,
   "latitude": 25.042993
 },
 {
   "postalCode": 10688,
   "cbNumber": "000208-1",
   "pNumber": 100108,
   "name": "台北敦南郵局",
   "cName": "台北108支",
   "city": "台北市",
   "district": "大安區",
   "address": "忠孝東路四段170巷9號",
   "longitude": 121.55085,
   "latitude": 25.040667
 },
 {
   "postalCode": 11011,
   "cbNumber": "000209-4",
   "pNumber": 100109,
   "name": "台北世貿郵局",
   "cName": "台北109支",
   "city": "台北市",
   "district": "信義區",
   "address": "信義路五段5號(世貿中心內)",
   "longitude": 121.561827,
   "latitude": 25.034177
 },
 {
   "postalCode": 10065,
   "cbNumber": "000210-6",
   "pNumber": 100110,
   "name": "台北南門郵局",
   "cName": "台北110支",
   "city": "台北市",
   "district": "中正區",
   "address": "廣州街2號",
   "longitude": 121.5105,
   "latitude": 25.034783
 },
 {
   "postalCode": 11698,
   "cbNumber": "000211-0",
   "pNumber": 100111,
   "name": "文山萬芳郵局",
   "cName": "台北111支",
   "city": "台北市",
   "district": "文山區",
   "address": "興隆路三段178、180號",
   "longitude": 121.55863,
   "latitude": 24.998114
 },
 {
   "postalCode": 10480,
   "cbNumber": "000212-3",
   "pNumber": 100112,
   "name": "台北興安郵局",
   "cName": "台北112支",
   "city": "台北市",
   "district": "中山區",
   "address": "復興北路210、212號",
   "longitude": 121.543872,
   "latitude": 25.056242
 },
 {
   "postalCode": 10002,
   "cbNumber": "000215-4",
   "pNumber": 100115,
   "name": "台大醫院郵局",
   "cName": "台北115支",
   "city": "台北市",
   "district": "中正區",
   "address": "中山南路七號(台大醫院內)",
   "longitude": 121.518927,
   "latitude": 25.0402
 },
 {
   "postalCode": 11144,
   "cbNumber": "000216-8",
   "pNumber": 100116,
   "name": "士林外雙溪郵局",
   "cName": "台北116支",
   "city": "台北市",
   "district": "士林區",
   "address": "明溪街15號",
   "longitude": 121.565203,
   "latitude": 25.107014
 },
 {
   "postalCode": 10658,
   "cbNumber": "000217-1",
   "pNumber": 100117,
   "name": "台北大安郵局",
   "cName": "台北117支",
   "city": "台北市",
   "district": "大安區",
   "address": "信義路三段89號",
   "longitude": 121.538257,
   "latitude": 25.033703
 },
 {
   "postalCode": 10574,
   "cbNumber": "000218-5",
   "pNumber": 100118,
   "name": "台北台塑郵局",
   "cName": "台北118支",
   "city": "台北市",
   "district": "松山區",
   "address": "民生東路四段54之2號",
   "longitude": 121.550939,
   "latitude": 25.057366
 },
 {
   "postalCode": 10055,
   "cbNumber": "000220-1",
   "pNumber": 100120,
   "name": "台北中聯郵局",
   "cName": "台北120支",
   "city": "台北市",
   "district": "中正區",
   "address": "徐州路5號地下一樓(中央聯合辦公大樓內)",
   "longitude": 121.519468,
   "latitude": 25.042225
 },
 {
   "postalCode": 10476,
   "cbNumber": "000221-4",
   "pNumber": 100121,
   "name": "台北龍江路郵局",
   "cName": "台北121支",
   "city": "台北市",
   "district": "中山區",
   "address": "龍江路335號",
   "longitude": 121.541036,
   "latitude": 25.063333
 },
 {
   "postalCode": 10462,
   "cbNumber": "000222-8",
   "pNumber": 100122,
   "name": "國防部郵局",
   "cName": "台北122支",
   "city": "台北市",
   "district": "中山區",
   "address": "北安路409號",
   "longitude": 121.540196,
   "latitude": 25.082813
 },
 {
   "postalCode": 11166,
   "cbNumber": "000223-1",
   "pNumber": 100123,
   "name": "士林劍潭郵局",
   "cName": "台北123支",
   "city": "台北市",
   "district": "士林區",
   "address": "基河路14號",
   "longitude": 121.523908,
   "latitude": 25.081748
 },
 {
   "postalCode": 11291,
   "cbNumber": "000224-5",
   "pNumber": 100124,
   "name": "陽明山郵局",
   "cName": "台北124支",
   "city": "台北市",
   "district": "北投區",
   "address": "紗帽路139之1號",
   "longitude": 121.546164,
   "latitude": 25.15125
 },
 {
   "postalCode": 11114,
   "cbNumber": "000225-9",
   "pNumber": 100125,
   "name": "文化大學郵局",
   "cName": "台北125支",
   "city": "台北市",
   "district": "士林區",
   "address": "華岡路55號",
   "longitude": 121.538735,
   "latitude": 25.1359
 },
 {
   "postalCode": 11172,
   "cbNumber": "000226-2",
   "pNumber": 100126,
   "name": "士林社新里郵局",
   "cName": "台北126支",
   "city": "台北市",
   "district": "士林區",
   "address": "延平北路六段197號",
   "longitude": 121.505844,
   "latitude": 25.089392
 },
 {
   "postalCode": 11058,
   "cbNumber": "000228-0",
   "pNumber": 100128,
   "name": "台北信義郵局",
   "cName": "台北128支",
   "city": "台北市",
   "district": "信義區",
   "address": "松廉路76號(信義投遞中心)",
   "longitude": 121.567224,
   "latitude": 25.033821
 },
 {
   "postalCode": 11142,
   "cbNumber": "000229-3",
   "pNumber": 100129,
   "name": "士林名山里郵局",
   "cName": "台北129支",
   "city": "台北市",
   "district": "士林區",
   "address": "至誠路二段70號",
   "longitude": 121.528281,
   "latitude": 25.101736
 },
 {
   "postalCode": 11246,
   "cbNumber": "000231-9",
   "pNumber": 100131,
   "name": "北投郵局",
   "cName": "台北131支",
   "city": "台北市",
   "district": "北投區",
   "address": "光明路181號",
   "longitude": 121.503085,
   "latitude": 25.135832
 },
 {
   "postalCode": 11267,
   "cbNumber": "000233-6",
   "pNumber": 100133,
   "name": "北投石牌郵局",
   "cName": "台北133支",
   "city": "台北市",
   "district": "北投區",
   "address": "石牌路二段93-2號",
   "longitude": 121.516364,
   "latitude": 25.117416
 },
 {
   "postalCode": 11260,
   "cbNumber": "000234-0",
   "pNumber": 100134,
   "name": "北投關渡郵局",
   "cName": "台北134支",
   "city": "台北市",
   "district": "北投區",
   "address": "知行路293巷9弄11號",
   "longitude": 121.466872,
   "latitude": 25.121557
 },
 {
   "postalCode": 11263,
   "cbNumber": "000235-3",
   "pNumber": 100135,
   "name": "北投舊北投郵局",
   "cName": "台北135支",
   "city": "台北市",
   "district": "北投區",
   "address": "中央南路一段201號",
   "longitude": 121.501316,
   "latitude": 25.128522
 },
 {
   "postalCode": 11217,
   "cbNumber": "000236-7",
   "pNumber": 100136,
   "name": "北投榮總郵局",
   "cName": "台北136支",
   "city": "台北市",
   "district": "北投區",
   "address": "石牌路二段201號",
   "longitude": 121.520153,
   "latitude": 25.119464
 },
 {
   "postalCode": 11287,
   "cbNumber": "000237-1",
   "pNumber": 100137,
   "name": "北投文林郵局",
   "cName": "台北137支",
   "city": "台北市",
   "district": "北投區",
   "address": "文林北路96號",
   "longitude": 121.517716,
   "latitude": 25.105614
 },
 {
   "postalCode": 11252,
   "cbNumber": "000238-4",
   "pNumber": 100138,
   "name": "北投山腳郵局",
   "cName": "台北138支",
   "city": "台北市",
   "district": "北投區",
   "address": "中和街408號",
   "longitude": 121.4981,
   "latitude": 25.143737
 },
 {
   "postalCode": 11276,
   "cbNumber": "000239-8",
   "pNumber": 100139,
   "name": "北投實踐郵局",
   "cName": "台北139支",
   "city": "台北市",
   "district": "北投區",
   "address": "實踐街48巷11號",
   "longitude": 121.509347,
   "latitude": 25.114574
 },
 {
   "postalCode": 11290,
   "cbNumber": "000240-0",
   "pNumber": 100140,
   "name": "北投致遠郵局",
   "cName": "台北140支",
   "city": "台北市",
   "district": "北投區",
   "address": "致遠一路1段121號",
   "longitude": 121.514895,
   "latitude": 25.110105
 },
 {
   "postalCode": 11253,
   "cbNumber": "000241-3",
   "pNumber": 100141,
   "name": "北投文化郵局",
   "cName": "台北141支",
   "city": "台北市",
   "district": "北投區",
   "address": "文化三路8號",
   "longitude": 121.497491,
   "latitude": 25.137376
 },
 {
   "postalCode": 11280,
   "cbNumber": "000242-7",
   "pNumber": 100142,
   "name": "北投明德郵局",
   "cName": "台北142支",
   "city": "台北市",
   "district": "北投區",
   "address": "明德路210號",
   "longitude": 121.522169,
   "latitude": 25.113297
 },
 {
   "postalCode": 11275,
   "cbNumber": "000243-1",
   "pNumber": 100143,
   "name": "北投尊賢郵局",
   "cName": "台北143支",
   "city": "台北市",
   "district": "北投區",
   "address": "尊賢街247-4號",
   "longitude": 121.506709,
   "latitude": 25.117583
 },
 {
   "postalCode": 11245,
   "cbNumber": "000244-4",
   "pNumber": 100144,
   "name": "北投奇岩郵局",
   "cName": "台北144支",
   "city": "台北市",
   "district": "北投區",
   "address": "公館路271號",
   "longitude": 121.507658,
   "latitude": 25.125148
 },
 {
   "postalCode": 11258,
   "cbNumber": "000245-8",
   "pNumber": 100145,
   "name": "北投豐年郵局",
   "cName": "台北145支",
   "city": "台北市",
   "district": "北投區",
   "address": "中央北路二段329號",
   "longitude": 121.489256,
   "latitude": 25.138336
 },
 {
   "postalCode": 11257,
   "cbNumber": "000246-1",
   "pNumber": 100146,
   "name": "北投一德郵局",
   "cName": "台北146支",
   "city": "台北市",
   "district": "北投區",
   "address": "中央北路四段529號",
   "longitude": 121.467949,
   "latitude": 25.127858
 },
 {
   "postalCode": 11221,
   "cbNumber": "000247-5",
   "pNumber": 100147,
   "name": "陽明大學郵局",
   "cName": "台北147支",
   "city": "台北市",
   "district": "北投區",
   "address": "立農街二段155號",
   "longitude": 121.513828,
   "latitude": 25.119281
 },
 {
   "postalCode": 11466,
   "cbNumber": "000248-9",
   "pNumber": 100148,
   "name": "內湖郵局",
   "cName": "台北148支",
   "city": "台北市",
   "district": "內湖區",
   "address": "民權東路六段83號",
   "longitude": 121.588113,
   "latitude": 25.069272
 },
 {
   "postalCode": 11464,
   "cbNumber": "000249-2",
   "pNumber": 100149,
   "name": "內湖碧湖郵局",
   "cName": "台北149支",
   "city": "台北市",
   "district": "內湖區",
   "address": "內湖路二段225號",
   "longitude": 121.588881,
   "latitude": 25.081811
 },
 {
   "postalCode": 11470,
   "cbNumber": "000250-4",
   "pNumber": 100150,
   "name": "內湖週美郵局",
   "cName": "台北150支",
   "city": "台北市",
   "district": "內湖區",
   "address": "新明路380巷4弄4號",
   "longitude": 121.580071,
   "latitude": 25.055081
 },
 {
   "postalCode": 11475,
   "cbNumber": "000251-8",
   "pNumber": 100151,
   "name": "內湖文德郵局",
   "cName": "台北151支",
   "city": "台北市",
   "district": "內湖區",
   "address": "文德路26號",
   "longitude": 121.579716,
   "latitude": 25.078289
 },
 {
   "postalCode": 11454,
   "cbNumber": "000252-1",
   "pNumber": 100152,
   "name": "內湖金龍郵局",
   "cName": "台北152支",
   "city": "台北市",
   "district": "內湖區",
   "address": "內湖路三段131號",
   "longitude": 121.589984,
   "latitude": 25.086794
 },
 {
   "postalCode": 11444,
   "cbNumber": "000253-5",
   "pNumber": 100153,
   "name": "內湖西湖郵局",
   "cName": "台北153支",
   "city": "台北市",
   "district": "內湖區",
   "address": "內湖路一段331號",
   "longitude": 121.568297,
   "latitude": 25.082327
 },
 {
   "postalCode": 11480,
   "cbNumber": "000254-9",
   "pNumber": 100154,
   "name": "內湖東湖郵局",
   "cName": "台北154支",
   "city": "台北市",
   "district": "內湖區",
   "address": "康樂街16號",
   "longitude": 121.617868,
   "latitude": 25.068211
 },
 {
   "postalCode": 11481,
   "cbNumber": "000255-2",
   "pNumber": 100155,
   "name": "內湖大湖郵局",
   "cName": "台北155支",
   "city": "台北市",
   "district": "內湖區",
   "address": "大湖街166巷2號",
   "longitude": 121.600631,
   "latitude": 25.084321
 },
 {
   "postalCode": 11492,
   "cbNumber": "000256-6",
   "pNumber": 100156,
   "name": "內湖江南郵局",
   "cName": "台北156支",
   "city": "台北市",
   "district": "內湖區",
   "address": "瑞光路316巷1號",
   "longitude": 121.573929,
   "latitude": 25.076505
 },
 {
   "postalCode": 11442,
   "cbNumber": "000257-0",
   "pNumber": 100157,
   "name": "內湖北勢湖郵局",
   "cName": "台北157支",
   "city": "台北市",
   "district": "內湖區",
   "address": "內湖路一段91巷2-1號",
   "longitude": 121.561453,
   "latitude": 25.084722
 },
 {
   "postalCode": 11494,
   "cbNumber": "000258-3",
   "pNumber": 100158,
   "name": "內湖舊宗郵局",
   "cName": "台北158支",
   "city": "台北市",
   "district": "內湖區",
   "address": "舊宗路一段189號",
   "longitude": 121.577979,
   "latitude": 25.06229
 },
 {
   "postalCode": 11486,
   "cbNumber": "000259-7",
   "pNumber": 100159,
   "name": "內湖康寧郵局",
   "cName": "台北159支",
   "city": "台北市",
   "district": "內湖區",
   "address": "康寧路三段22號之1",
   "longitude": 121.607769,
   "latitude": 25.072277
 },
 {
   "postalCode": 11490,
   "cbNumber": "000260-9",
   "pNumber": 100160,
   "name": "內湖三總郵局",
   "cName": "台北160支",
   "city": "台北市",
   "district": "內湖區",
   "address": "成功路二段325號2樓",
   "longitude": 121.592291,
   "latitude": 25.071849
 },
 {
   "postalCode": 11558,
   "cbNumber": "000261-2",
   "pNumber": 100161,
   "name": "南港昆陽郵局",
   "cName": "台北161支",
   "city": "台北市",
   "district": "南港區",
   "address": "忠孝東路六段400、402、404、406號",
   "longitude": 121.592612,
   "latitude": 25.049883
 },
 {
   "postalCode": 11574,
   "cbNumber": "000262-6",
   "pNumber": 100162,
   "name": "中研院郵局",
   "cName": "台北162支",
   "city": "台北市",
   "district": "南港區",
   "address": "研究院路二段108號",
   "longitude": 121.616507,
   "latitude": 25.042823
 },
 {
   "postalCode": 11554,
   "cbNumber": "000264-3",
   "pNumber": 100164,
   "name": "南港港三郵局",
   "cName": "台北164支",
   "city": "台北市",
   "district": "南港區",
   "address": "南港路三段184號",
   "longitude": 121.587043,
   "latitude": 25.053138
 },
 {
   "postalCode": 11571,
   "cbNumber": "000265-7",
   "pNumber": 100165,
   "name": "南港富康郵局",
   "cName": "台北165支",
   "city": "台北市",
   "district": "南港區",
   "address": "研究院路一段44號",
   "longitude": 121.616197,
   "latitude": 25.053488
 },
 {
   "postalCode": 11556,
   "cbNumber": "000266-1",
   "pNumber": 100166,
   "name": "南港同德郵局",
   "cName": "台北166支",
   "city": "台北市",
   "district": "南港區",
   "address": "同德路85巷2號",
   "longitude": 121.585658,
   "latitude": 25.04624
 },
 {
   "postalCode": 11579,
   "cbNumber": "000267-4",
   "pNumber": 100167,
   "name": "南港郵局",
   "cName": "台北167支",
   "city": "台北市",
   "district": "南港區",
   "address": "南港路二段78號",
   "longitude": 121.603416,
   "latitude": 25.053889
 },
 {
   "postalCode": 11555,
   "cbNumber": "000268-8",
   "pNumber": 100168,
   "name": "南港福德郵局",
   "cName": "台北168支",
   "city": "台北市",
   "district": "南港區",
   "address": "福德街314、316號",
   "longitude": 121.58774,
   "latitude": 25.039413
 },
 {
   "postalCode": 11575,
   "cbNumber": "000269-1",
   "pNumber": 100169,
   "name": "南港後山埤郵局",
   "cName": "台北169支",
   "city": "台北市",
   "district": "南港區",
   "address": "忠孝東路五段994號",
   "longitude": 121.582686,
   "latitude": 25.044881
 },
 {
   "postalCode": 11648,
   "cbNumber": "000270-3",
   "pNumber": 100170,
   "name": "木柵郵局",
   "cName": "台北170支",
   "city": "台北市",
   "district": "文山區",
   "address": "木柵路三段27號",
   "longitude": 121.565401,
   "latitude": 24.988476
 },
 {
   "postalCode": 11651,
   "cbNumber": "000271-7",
   "pNumber": 100171,
   "name": "文山指南郵局",
   "cName": "台北171支",
   "city": "台北市",
   "district": "文山區",
   "address": "指南路二段115號",
   "longitude": 121.576301,
   "latitude": 24.987652
 },
 {
   "postalCode": 11645,
   "cbNumber": "000272-1",
   "pNumber": 100172,
   "name": "文山溝子口郵局",
   "cName": "台北172支",
   "city": "台北市",
   "district": "文山區",
   "address": "木柵路1段119號",
   "longitude": 121.548489,
   "latitude": 24.987328
 },
 {
   "postalCode": 11659,
   "cbNumber": "000273-4",
   "pNumber": 100173,
   "name": "文山木新郵局",
   "cName": "台北173支",
   "city": "台北市",
   "district": "文山區",
   "address": "木新路3段329號",
   "longitude": 121.556252,
   "latitude": 24.980414
 },
 {
   "postalCode": 22342,
   "cbNumber": "000274-8",
   "pNumber": 100174,
   "name": "石碇郵局",
   "cName": "台北174支",
   "city": "新北市",
   "district": "石碇區",
   "address": "碇坪路1段78-80號",
   "longitude": 121.657687,
   "latitude": 24.99135
 },
 {
   "postalCode": 22244,
   "cbNumber": "000275-1",
   "pNumber": 100175,
   "name": "深坑郵局",
   "cName": "台北175支",
   "city": "新北市",
   "district": "深坑區",
   "address": "北深路3段30號",
   "longitude": 121.6092,
   "latitude": 25.001209
 },
 {
   "postalCode": 11604,
   "cbNumber": "000276-5",
   "pNumber": 100176,
   "name": "世新大學郵局",
   "cName": "台北176支",
   "city": "台北市",
   "district": "文山區",
   "address": "木柵路1段17巷1號",
   "longitude": 121.54503,
   "latitude": 24.989503
 },
 {
   "postalCode": 10052,
   "cbNumber": "000277-9",
   "pNumber": 100177,
   "name": "台北仁杭郵局",
   "cName": "台北177支",
   "city": "台北市",
   "district": "中正區",
   "address": "杭州南路１段24號1樓(交通部大樓國際會議廳)",
   "longitude": 121.524695,
   "latitude": 25.037588
 },
 {
   "postalCode": 11658,
   "cbNumber": "000278-2",
   "pNumber": 100178,
   "name": "文山樟腳里郵局",
   "cName": "台北178支",
   "city": "台北市",
   "district": "文山區",
   "address": "木新路3段25號",
   "longitude": 121.564727,
   "latitude": 24.982514
 },
 {
   "postalCode": 11605,
   "cbNumber": "000279-6",
   "pNumber": 100179,
   "name": "政大郵局",
   "cName": "台北179支",
   "city": "台北市",
   "district": "文山區",
   "address": "指南路2段64號(國立政治大學藝文中心內)",
   "longitude": 121.572313,
   "latitude": 24.982062
 },
 {
   "postalCode": 22301,
   "cbNumber": "000280-8",
   "pNumber": 100180,
   "name": "石碇華梵大學郵局",
   "cName": "台北180支",
   "city": "新北市",
   "district": "石碇區",
   "address": "豐田里華梵路1號",
   "longitude": 121.690965,
   "latitude": 24.981379
 },
 {
   "postalCode": 22241,
   "cbNumber": "000281-1",
   "pNumber": 100181,
   "name": "深坑草地尾郵局",
   "cName": "台北181支",
   "city": "新北市",
   "district": "深坑區",
   "address": "北深路3段264號之1",
   "longitude": 121.598896,
   "latitude": 25.004616
 },
 {
   "postalCode": 22641,
   "cbNumber": "000282-5",
   "pNumber": 100182,
   "name": "平溪郵局",
   "cName": "台北182支",
   "city": "新北市",
   "district": "平溪區",
   "address": "平溪街42號",
   "longitude": 121.738489,
   "latitude": 25.025971
 },
 {
   "postalCode": 11665,
   "cbNumber": "000283-9",
   "pNumber": 100183,
   "name": "文山萬美街郵局",
   "cName": "台北183支",
   "city": "台北市",
   "district": "文山區",
   "address": "萬美街1段51號",
   "longitude": 121.568186,
   "latitude": 25.002266
 },
 {
   "postalCode": 89345,
   "cbNumber": "000284-2",
   "pNumber": 100184,
   "name": "金門郵局",
   "cName": "台北184支",
   "city": "金門縣",
   "district": "金城鎮",
   "address": "民生路４號",
   "longitude": 118.32054,
   "latitude": 24.432988
 },
 {
   "postalCode": 89049,
   "cbNumber": "000285-6",
   "pNumber": 100185,
   "name": "金門沙美郵局",
   "cName": "台北185支",
   "city": "金門縣",
   "district": "金沙鎮",
   "address": "國中路21號",
   "longitude": 118.414389,
   "latitude": 24.489106
 },
 {
   "postalCode": 89250,
   "cbNumber": "000286-0",
   "pNumber": 100186,
   "name": "金門金寧郵局",
   "cName": "台北186支",
   "city": "金門縣",
   "district": "金寧鄉",
   "address": "仁愛新邨137、138號",
   "longitude": 118.336138,
   "latitude": 24.450111
 },
 {
   "postalCode": 89441,
   "cbNumber": "000287-3",
   "pNumber": 100187,
   "name": "金門烈嶼郵局",
   "cName": "台北187支",
   "city": "金門縣",
   "district": "烈嶼鄉",
   "address": "林湖村西宅7之5號",
   "longitude": 118.247577,
   "latitude": 24.429511
 },
 {
   "postalCode": 89146,
   "cbNumber": "000288-7",
   "pNumber": 100188,
   "name": "金門尚義郵局",
   "cName": "台北188支",
   "city": "金門縣",
   "district": "金湖鎮",
   "address": "尚義機場2號",
   "longitude": 118.368056,
   "latitude": 24.435802
 },
 {
   "postalCode": 20941,
   "cbNumber": "000289-1",
   "pNumber": 100189,
   "name": "馬祖郵局",
   "cName": "台北189支",
   "city": "連江縣",
   "district": "南竿鄉",
   "address": "福沃村141號",
   "longitude": 119.94165,
   "latitude": 26.157328
 },
 {
   "postalCode": 20942,
   "cbNumber": "000290-2",
   "pNumber": 100190,
   "name": "馬祖馬港郵局",
   "cName": "台北190支",
   "city": "連江縣",
   "district": "南竿鄉",
   "address": "馬祖村84號",
   "longitude": 119.916201,
   "latitude": 26.160433
 },
 {
   "postalCode": 11503,
   "cbNumber": "000291-6",
   "pNumber": 100191,
   "name": "南港軟體園區郵局",
   "cName": "台北191支",
   "city": "台北市",
   "district": "南港區",
   "address": "園區街3-2號H棟1樓",
   "longitude": 121.611896,
   "latitude": 25.056619
 },
 {
   "postalCode": 10462,
   "cbNumber": "000292-0",
   "pNumber": 100192,
   "name": "台北樂群二路郵局",
   "cName": "台北192支",
   "city": "台北市",
   "district": "中山區",
   "address": "樂群二路147號",
   "longitude": 121.557167,
   "latitude": 25.080134
 },
 {
   "postalCode": 89142,
   "cbNumber": "000350-0",
   "pNumber": 100250,
   "name": "金門山外郵局",
   "cName": "台北250支",
   "city": "金門縣",
   "district": "金湖鎮",
   "address": "林森路39號",
   "longitude": 118.415488,
   "latitude": 24.442197
 },
 {
   "postalCode": 21141,
   "cbNumber": "000353-1",
   "pNumber": 100253,
   "name": "馬祖西莒郵局",
   "cName": "台北253支",
   "city": "連江縣",
   "district": "莒光鄉",
   "address": "西莒青帆村17號",
   "longitude": 119.972172,
   "latitude": 25.960157
 },
 {
   "postalCode": 21041,
   "cbNumber": "000354-4",
   "pNumber": 100254,
   "name": "馬祖北竿郵局",
   "cName": "台北254支",
   "city": "連江縣",
   "district": "北竿鄉",
   "address": "塘岐村256號",
   "longitude": 119.997248,
   "latitude": 26.224585
 },
 {
   "postalCode": 21241,
   "cbNumber": "000356-1",
   "pNumber": 100256,
   "name": "馬祖東引郵局",
   "cName": "台北256支",
   "city": "連江縣",
   "district": "東引鄉",
   "address": "樂華村69號",
   "longitude": 120.487659,
   "latitude": 26.366926
 },
 {
   "postalCode": 89641,
   "cbNumber": "000357-5",
   "pNumber": 100257,
   "name": "金門烏坵郵局",
   "cName": "台北257支",
   "city": "金門縣",
   "district": "烏坵鄉",
   "address": "大坵村",
   "longitude": 119.453982,
   "latitude": 24.988868
 },
 {
   "postalCode": 21191,
   "cbNumber": "000355-8",
   "pNumber": 100255,
   "name": "馬祖東莒郵局",
   "cName": "台北255支",
   "city": "連江縣",
   "district": "莒光鄉",
   "address": "東莒大坪村55號",
   "longitude": 119.972172,
   "latitude": 25.960157
 },
 {
   "postalCode": 20047,
   "cbNumber": "001100-2",
   "pNumber": 200450,
   "name": "基隆愛三路郵局",
   "cName": "基隆901支",
   "city": "基隆市",
   "district": "仁愛區",
   "address": "愛三路130號1F",
   "longitude": 121.743734,
   "latitude": 25.129912
 },
 {
   "postalCode": 20248,
   "cbNumber": "001101-6",
   "pNumber": 200001,
   "name": "基隆港東郵局",
   "cName": "基隆1支",
   "city": "基隆市",
   "district": "中正區",
   "address": "中正路56號",
   "longitude": 121.74559,
   "latitude": 25.134231
 },
 {
   "postalCode": 20041,
   "cbNumber": "001102-0",
   "pNumber": 200002,
   "name": "基隆港西街郵局",
   "cName": "基隆2支",
   "city": "基隆市",
   "district": "仁愛區",
   "address": "港西街10號",
   "longitude": 121.740739,
   "latitude": 25.133743
 },
 {
   "postalCode": 20645,
   "cbNumber": "001103-3",
   "pNumber": 200003,
   "name": "基隆七堵郵局",
   "cName": "基隆3支",
   "city": "基隆市",
   "district": "七堵區",
   "address": "明德一路171號",
   "longitude": 121.712767,
   "latitude": 25.097194
 },
 {
   "postalCode": 20248,
   "cbNumber": "001104-7",
   "pNumber": 200004,
   "name": "基隆中正郵局",
   "cName": "基隆4支",
   "city": "基隆市",
   "district": "中正區",
   "address": "中正路393巷18號",
   "longitude": 121.7664,
   "latitude": 25.151176
 },
 {
   "postalCode": 20341,
   "cbNumber": "001105-1",
   "pNumber": 200005,
   "name": "基隆新民郵局",
   "cName": "基隆5支",
   "city": "基隆市",
   "district": "中山區",
   "address": "新民路19號",
   "longitude": 121.736323,
   "latitude": 25.130573
 },
 {
   "postalCode": 20246,
   "cbNumber": "001106-4",
   "pNumber": 200006,
   "name": "基隆和平島郵局",
   "cName": "基隆6支",
   "city": "基隆市",
   "district": "中正區",
   "address": "和一路129號",
   "longitude": 121.765401,
   "latitude": 25.154916
 },
 {
   "postalCode": 20224,
   "cbNumber": "001107-8",
   "pNumber": 200007,
   "name": "海洋大學郵局",
   "cName": "基隆7支",
   "city": "基隆市",
   "district": "中正區",
   "address": "北寧路2號",
   "longitude": 121.775569,
   "latitude": 25.150583
 },
 {
   "postalCode": 20542,
   "cbNumber": "001108-1",
   "pNumber": 200008,
   "name": "基隆過港路郵局",
   "cName": "基隆8支",
   "city": "基隆市",
   "district": "暖暖區",
   "address": "過港路58號",
   "longitude": 121.737722,
   "latitude": 25.105212
 },
 {
   "postalCode": 20042,
   "cbNumber": "001109-5",
   "pNumber": 200009,
   "name": "基隆孝三路郵局",
   "cName": "基隆9支",
   "city": "基隆市",
   "district": "仁愛區",
   "address": "孝三路62號",
   "longitude": 121.739608,
   "latitude": 25.130425
 },
 {
   "postalCode": 20342,
   "cbNumber": "001110-7",
   "pNumber": 200010,
   "name": "基隆中山郵局",
   "cName": "基隆10支",
   "city": "基隆市",
   "district": "中山區",
   "address": "中華路3號",
   "longitude": 121.738659,
   "latitude": 25.144871
 },
 {
   "postalCode": 20249,
   "cbNumber": "001111-1",
   "pNumber": 200011,
   "name": "基隆八斗子郵局",
   "cName": "基隆11支",
   "city": "基隆市",
   "district": "中正區",
   "address": "八斗街14號",
   "longitude": 121.796289,
   "latitude": 25.140034
 },
 {
   "postalCode": 20147,
   "cbNumber": "001112-4",
   "pNumber": 200012,
   "name": "基隆信義郵局",
   "cName": "基隆12支",
   "city": "基隆市",
   "district": "信義區",
   "address": "信二路178號",
   "longitude": 121.753495,
   "latitude": 25.129461
 },
 {
   "postalCode": 20145,
   "cbNumber": "001113-8",
   "pNumber": 200013,
   "name": "基隆東信路郵局",
   "cName": "基隆13支",
   "city": "基隆市",
   "district": "信義區",
   "address": "東信路123號",
   "longitude": 121.763864,
   "latitude": 25.128232
 },
 {
   "postalCode": 20647,
   "cbNumber": "001114-1",
   "pNumber": 200014,
   "name": "基隆六堵郵局",
   "cName": "基隆14支",
   "city": "基隆市",
   "district": "七堵區",
   "address": "工東街64號",
   "longitude": 121.703414,
   "latitude": 25.08838
 },
 {
   "postalCode": 20248,
   "cbNumber": "001115-5",
   "pNumber": 200015,
   "name": "基隆安瀾橋郵局",
   "cName": "基隆15支",
   "city": "基隆市",
   "district": "中正區",
   "address": "中正路330號",
   "longitude": 121.761035,
   "latitude": 25.142837
 },
 {
   "postalCode": 20048,
   "cbNumber": "001116-9",
   "pNumber": 200016,
   "name": "基隆仁二路郵局",
   "cName": "基隆16支",
   "city": "基隆市",
   "district": "仁愛區",
   "address": "仁二路19號",
   "longitude": 121.750388,
   "latitude": 25.127587
 },
 {
   "postalCode": 20043,
   "cbNumber": "001117-2",
   "pNumber": 200017,
   "name": "基隆光二路郵局",
   "cName": "基隆17支",
   "city": "基隆市",
   "district": "仁愛區",
   "address": "光二路1號",
   "longitude": 121.737208,
   "latitude": 25.127372
 },
 {
   "postalCode": 20447,
   "cbNumber": "001118-6",
   "pNumber": 200018,
   "name": "基隆樂利郵局",
   "cName": "基隆18支",
   "city": "基隆市",
   "district": "安樂區",
   "address": "樂利三街261號",
   "longitude": 121.715858,
   "latitude": 25.126704
 },
 {
   "postalCode": 20045,
   "cbNumber": "001119-0",
   "pNumber": 200019,
   "name": "基隆南榮路郵局",
   "cName": "基隆19支",
   "city": "基隆市",
   "district": "仁愛區",
   "address": "南榮路20號",
   "longitude": 121.742639,
   "latitude": 25.125719
 },
 {
   "postalCode": 20545,
   "cbNumber": "001120-1",
   "pNumber": 200020,
   "name": "基隆碇內郵局",
   "cName": "基隆20支",
   "city": "基隆市",
   "district": "暖暖區",
   "address": "源遠路341號",
   "longitude": 121.758228,
   "latitude": 25.099545
 },
 {
   "postalCode": 20448,
   "cbNumber": "001121-5",
   "pNumber": 200021,
   "name": "基隆安樂路郵局",
   "cName": "基隆21支",
   "city": "基隆市",
   "district": "安樂區",
   "address": "安樂路二段132號",
   "longitude": 121.72397,
   "latitude": 25.121475
 },
 {
   "postalCode": 20348,
   "cbNumber": "001122-9",
   "pNumber": 200022,
   "name": "基隆復興路郵局",
   "cName": "基隆22支",
   "city": "基隆市",
   "district": "中山區",
   "address": "復興路38號",
   "longitude": 121.726819,
   "latitude": 25.14179
 },
 {
   "postalCode": 20649,
   "cbNumber": "001124-6",
   "pNumber": 200024,
   "name": "基隆百福郵局",
   "cName": "基隆24支",
   "city": "基隆市",
   "district": "七堵區",
   "address": "百五街93號",
   "longitude": 121.698014,
   "latitude": 25.084234
 },
 {
   "postalCode": 20242,
   "cbNumber": "001125-0",
   "pNumber": 200025,
   "name": "基隆三沙灣郵局",
   "cName": "基隆25支",
   "city": "基隆市",
   "district": "中正區",
   "address": "中船路112巷28號",
   "longitude": 121.752199,
   "latitude": 25.138374
 },
 {
   "postalCode": 20445,
   "cbNumber": "001126-3",
   "pNumber": 200026,
   "name": "基隆大武崙郵局",
   "cName": "基隆26支",
   "city": "基隆市",
   "district": "安樂區",
   "address": "基金一路131-24號",
   "longitude": 121.711878,
   "latitude": 25.140219
 },
 {
   "postalCode": 22843,
   "cbNumber": "001128-1",
   "pNumber": 200028,
   "name": "貢寮郵局",
   "cName": "基隆28支",
   "city": "新北市",
   "district": "貢寮區",
   "address": "貢寮街50號",
   "longitude": 121.908842,
   "latitude": 25.019582
 },
 {
   "postalCode": 22844,
   "cbNumber": "001129-4",
   "pNumber": 200029,
   "name": "貢寮澳底郵局",
   "cName": "基隆29支",
   "city": "新北市",
   "district": "貢寮區",
   "address": "仁和路230號",
   "longitude": 121.924054,
   "latitude": 25.053709
 },
 {
   "postalCode": 20745,
   "cbNumber": "001130-6",
   "pNumber": 200030,
   "name": "萬里郵局",
   "cName": "基隆30支",
   "city": "新北市",
   "district": "萬里區",
   "address": "瑪鋉路48號",
   "longitude": 121.689595,
   "latitude": 25.177627
 },
 {
   "postalCode": 20544,
   "cbNumber": "001131-0",
   "pNumber": 200031,
   "name": "基隆暖暖郵局",
   "cName": "基隆31支",
   "city": "基隆市",
   "district": "暖暖區",
   "address": "暖暖街190號",
   "longitude": 121.7356,
   "latitude": 25.099258
 },
 {
   "postalCode": 20845,
   "cbNumber": "001132-3",
   "pNumber": 200032,
   "name": "金山郵局",
   "cName": "基隆32支",
   "city": "新北市",
   "district": "金山區",
   "address": "中山路97號",
   "longitude": 121.639875,
   "latitude": 25.218944
 },
 {
   "postalCode": 22744,
   "cbNumber": "001133-7",
   "pNumber": 200033,
   "name": "雙溪郵局",
   "cName": "基隆33支",
   "city": "新北市",
   "district": "雙溪區",
   "address": "太平路81號",
   "longitude": 121.865347,
   "latitude": 25.036275
 },
 {
   "postalCode": 22441,
   "cbNumber": "001134-1",
   "pNumber": 200034,
   "name": "瑞芳郵局",
   "cName": "基隆34支",
   "city": "新北市",
   "district": "瑞芳區",
   "address": "中正路13號",
   "longitude": 121.808108,
   "latitude": 25.10706
 },
 {
   "postalCode": 22448,
   "cbNumber": "001135-4",
   "pNumber": 200035,
   "name": "瑞芳九份郵局",
   "cName": "基隆35支",
   "city": "新北市",
   "district": "瑞芳區",
   "address": "基山街126號",
   "longitude": 121.84386,
   "latitude": 25.108383
 },
 {
   "postalCode": 22445,
   "cbNumber": "001136-8",
   "pNumber": 200036,
   "name": "瑞芳四腳亭郵局",
   "cName": "基隆36支",
   "city": "新北市",
   "district": "瑞芳區",
   "address": "大埔路132-1號",
   "longitude": 121.761797,
   "latitude": 25.100695
 },
 {
   "postalCode": 22450,
   "cbNumber": "001137-1",
   "pNumber": 200037,
   "name": "瑞芳金瓜石郵局",
   "cName": "基隆37支",
   "city": "新北市",
   "district": "瑞芳區",
   "address": "金光路51-1號",
   "longitude": 121.857654,
   "latitude": 25.108004
 },
 {
   "postalCode": 20251,
   "cbNumber": "001138-5",
   "pNumber": 200038,
   "name": "基隆新豐街郵局",
   "cName": "基隆38支",
   "city": "基隆市",
   "district": "中正區",
   "address": "新豐街482號2樓",
   "longitude": 121.785179,
   "latitude": 25.135488
 },
 {
   "postalCode": 22173,
   "cbNumber": "001139-9",
   "pNumber": 200039,
   "name": "汐止郵局",
   "cName": "基隆39支",
   "city": "新北市",
   "district": "汐止區",
   "address": "大同路三段168號",
   "longitude": 121.673632,
   "latitude": 25.075533
 },
 {
   "postalCode": 22146,
   "cbNumber": "001141-4",
   "pNumber": 200041,
   "name": "汐止樟樹灣郵局",
   "cName": "基隆41支",
   "city": "新北市",
   "district": "汐止區",
   "address": "大同路一段322號",
   "longitude": 121.637542,
   "latitude": 25.058734
 },
 {
   "postalCode": 22157,
   "cbNumber": "001142-8",
   "pNumber": 200042,
   "name": "汐止社后郵局",
   "cName": "基隆42支",
   "city": "新北市",
   "district": "汐止區",
   "address": "康寧街426號",
   "longitude": 121.630769,
   "latitude": 25.068028
 },
 {
   "postalCode": 22167,
   "cbNumber": "001143-1",
   "pNumber": 200043,
   "name": "汐止龍安郵局",
   "cName": "基隆43支",
   "city": "新北市",
   "district": "汐止區",
   "address": "龍安路42號",
   "longitude": 121.654254,
   "latitude": 25.063701
 },
 {
   "postalCode": 22147,
   "cbNumber": "001144-5",
   "pNumber": 200044,
   "name": "汐止厚德郵局",
   "cName": "基隆44支",
   "city": "新北市",
   "district": "汐止區",
   "address": "樟樹一路224號",
   "longitude": 121.642481,
   "latitude": 25.06651
 },
 {
   "postalCode": 22176,
   "cbNumber": "001145-9",
   "pNumber": 200045,
   "name": "汐止翠柏郵局",
   "cName": "基隆45支",
   "city": "新北市",
   "district": "汐止區",
   "address": "永春一路5號",
   "longitude": 121.602575,
   "latitude": 25.112449
 },
 {
   "postalCode": 22165,
   "cbNumber": "001146-2",
   "pNumber": 200046,
   "name": "汐止南昌郵局",
   "cName": "基隆46支",
   "city": "新北市",
   "district": "汐止區",
   "address": "新昌路72號",
   "longitude": 121.663611,
   "latitude": 25.068879
 },
 {
   "postalCode": 22174,
   "cbNumber": "001147-6",
   "pNumber": 200047,
   "name": "汐止建成路郵局",
   "cName": "基隆47支",
   "city": "新北市",
   "district": "汐止區",
   "address": "建成路58號",
   "longitude": 121.663698,
   "latitude": 25.073096
 },
 {
   "postalCode": 40001,
   "cbNumber": "002100-9",
   "pNumber": 400000,
   "name": "台中民權路郵局",
   "cName": "台中901支",
   "city": "台中市",
   "district": "中區",
   "address": "民權路86號",
   "longitude": 120.678871,
   "latitude": 24.139121
 },
 {
   "postalCode": 40250,
   "cbNumber": "002101-2",
   "pNumber": 400001,
   "name": "台中台中路郵局",
   "cName": "台中1支",
   "city": "台中市",
   "district": "南區",
   "address": "台中路100號",
   "longitude": 120.683371,
   "latitude": 24.133263
 },
 {
   "postalCode": 40355,
   "cbNumber": "002102-6",
   "pNumber": 400002,
   "name": "台中中正路郵局",
   "cName": "台中2支",
   "city": "台中市",
   "district": "西區",
   "address": "台灣大道一段701號",
   "longitude": 120.673956,
   "latitude": 24.147166
 },
 {
   "postalCode": 41449,
   "cbNumber": "002103-0",
   "pNumber": 400003,
   "name": "烏日郵局",
   "cName": "台中3支",
   "city": "台中市",
   "district": "烏日區",
   "address": "光日路123號",
   "longitude": 120.624623,
   "latitude": 24.105422
 },
 {
   "postalCode": 40704,
   "cbNumber": "002105-7",
   "pNumber": 400005,
   "name": "東海大學郵局",
   "cName": "台中5支",
   "city": "台中市",
   "district": "西屯區",
   "address": "台灣大道四段1727號(東海大學內)",
   "longitude": 120.598531,
   "latitude": 24.180446
 },
 {
   "postalCode": 41346,
   "cbNumber": "002106-1",
   "pNumber": 400006,
   "name": "霧峰民生路郵局",
   "cName": "台中6支",
   "city": "台中市",
   "district": "霧峰區",
   "address": "民生路93號",
   "longitude": 120.700242,
   "latitude": 24.065795
 },
 {
   "postalCode": 41341,
   "cbNumber": "002108-8",
   "pNumber": 400008,
   "name": "霧峰郵局",
   "cName": "台中8支",
   "city": "台中市",
   "district": "霧峰區",
   "address": "中正路806號",
   "longitude": 120.698481,
   "latitude": 24.061762
 },
 {
   "postalCode": 42879,
   "cbNumber": "002109-1",
   "pNumber": 400009,
   "name": "大雅清泉崗郵局",
   "cName": "台中9支",
   "city": "台中市",
   "district": "大雅區",
   "address": "忠義里仁愛路100號",
   "longitude": 120.620885,
   "latitude": 24.234471
 },
 {
   "postalCode": 41145,
   "cbNumber": "002110-3",
   "pNumber": 400010,
   "name": "太平長億郵局",
   "cName": "台中10支",
   "city": "台中市",
   "district": "太平區",
   "address": "長億一街53、55號",
   "longitude": 120.719867,
   "latitude": 24.120029
 },
 {
   "postalCode": 41281,
   "cbNumber": "002111-7",
   "pNumber": 400011,
   "name": "大里仁化郵局",
   "cName": "台中11支",
   "city": "台中市",
   "district": "大里區",
   "address": "至善路30號",
   "longitude": 120.703284,
   "latitude": 24.093309
 },
 {
   "postalCode": 41170,
   "cbNumber": "002113-4",
   "pNumber": 400013,
   "name": "太平坪林郵局",
   "cName": "台中13支",
   "city": "台中市",
   "district": "太平區",
   "address": "中山路一段325、327號",
   "longitude": 120.734194,
   "latitude": 24.145078
 },
 {
   "postalCode": 41148,
   "cbNumber": "002114-8",
   "pNumber": 400014,
   "name": "太平竹仔坑郵局",
   "cName": "台中14支",
   "city": "台中市",
   "district": "太平區",
   "address": "光興路517、519號",
   "longitude": 120.728977,
   "latitude": 24.105224
 },
 {
   "postalCode": 40445,
   "cbNumber": "002115-1",
   "pNumber": 400015,
   "name": "台中育才郵局",
   "cName": "台中15支",
   "city": "台中市",
   "district": "北區",
   "address": "三民路三段140號",
   "longitude": 120.684779,
   "latitude": 24.151136
 },
 {
   "postalCode": 40342,
   "cbNumber": "002116-5",
   "pNumber": 400016,
   "name": "台中法院郵局",
   "cName": "台中16支",
   "city": "台中市",
   "district": "西區",
   "address": "自由路一段91號(台中地方法院內)",
   "longitude": 120.67639,
   "latitude": 24.134757
 },
 {
   "postalCode": 40249,
   "cbNumber": "002117-9",
   "pNumber": 400017,
   "name": "台中國光路郵局",
   "cName": "台中17支",
   "city": "台中市",
   "district": "南區",
   "address": "國光路297號",
   "longitude": 120.679448,
   "latitude": 24.122583
 },
 {
   "postalCode": 40046,
   "cbNumber": "002118-2",
   "pNumber": 400018,
   "name": "台中公園路郵局",
   "cName": "台中18支",
   "city": "台中市",
   "district": "中區",
   "address": "公園路4號",
   "longitude": 120.684842,
   "latitude": 24.142064
 },
 {
   "postalCode": 40863,
   "cbNumber": "002119-6",
   "pNumber": 400019,
   "name": "台中南屯路郵局",
   "cName": "台中19支",
   "city": "台中市",
   "district": "南屯區",
   "address": "南屯路二段405號",
   "longitude": 120.643508,
   "latitude": 24.138258
 },
 {
   "postalCode": 40252,
   "cbNumber": "002120-8",
   "pNumber": 400020,
   "name": "台中福平里郵局",
   "cName": "台中20支",
   "city": "台中市",
   "district": "南區",
   "address": "復興路二段169號",
   "longitude": 120.665832,
   "latitude": 24.127301
 },
 {
   "postalCode": 41270,
   "cbNumber": "002121-1",
   "pNumber": 400021,
   "name": "大里郵局",
   "cName": "台中21支",
   "city": "台中市",
   "district": "大里區",
   "address": "中興路二段212號",
   "longitude": 120.68878,
   "latitude": 24.10303
 },
 {
   "postalCode": 42853,
   "cbNumber": "002122-5",
   "pNumber": 400022,
   "name": "大雅郵局",
   "cName": "台中22支",
   "city": "台中市",
   "district": "大雅區",
   "address": "中清東路177號",
   "longitude": 120.647701,
   "latitude": 24.223412
 },
 {
   "postalCode": 40142,
   "cbNumber": "002123-9",
   "pNumber": 400023,
   "name": "台中力行路郵局",
   "cName": "台中23支",
   "city": "台中市",
   "district": "東區",
   "address": "力行路52巷5號",
   "longitude": 120.695706,
   "latitude": 24.15136
 },
 {
   "postalCode": 40153,
   "cbNumber": "002124-2",
   "pNumber": 400024,
   "name": "台中旱溪郵局",
   "cName": "台中24支",
   "city": "台中市",
   "district": "東區",
   "address": "一心街403號",
   "longitude": 120.702229,
   "latitude": 24.140707
 },
 {
   "postalCode": 40744,
   "cbNumber": "002125-6",
   "pNumber": 400025,
   "name": "台中逢甲郵局",
   "cName": "台中25支",
   "city": "台中市",
   "district": "西屯區",
   "address": "河南路二段268號",
   "longitude": 120.649133,
   "latitude": 24.175273
 },
 {
   "postalCode": 40455,
   "cbNumber": "002126-0",
   "pNumber": 400026,
   "name": "台中雙十路郵局",
   "cName": "台中26支",
   "city": "台中市",
   "district": "北區",
   "address": "雙十路二段119號",
   "longitude": 120.690389,
   "latitude": 24.157146
 },
 {
   "postalCode": 40677,
   "cbNumber": "002127-3",
   "pNumber": 400027,
   "name": "台中水湳郵局",
   "cName": "台中27支",
   "city": "台中市",
   "district": "北屯區",
   "address": "四平路1號",
   "longitude": 120.669698,
   "latitude": 24.177527
 },
 {
   "postalCode": 41270,
   "cbNumber": "002128-7",
   "pNumber": 400028,
   "name": "大里內新郵局",
   "cName": "台中28支",
   "city": "台中市",
   "district": "大里區",
   "address": "中興路二段520號",
   "longitude": 120.68997,
   "latitude": 24.112363
 },
 {
   "postalCode": 40851,
   "cbNumber": "002129-1",
   "pNumber": 400029,
   "name": "台中嶺東郵局",
   "cName": "台中29支",
   "city": "台中市",
   "district": "南屯區",
   "address": "建功路50號",
   "longitude": 120.610482,
   "latitude": 24.135821
 },
 {
   "postalCode": 40760,
   "cbNumber": "002130-2",
   "pNumber": 400030,
   "name": "台中西屯郵局",
   "cName": "台中30支",
   "city": "台中市",
   "district": "西屯區",
   "address": "黎明路三段130號",
   "longitude": 120.637655,
   "latitude": 24.176707
 },
 {
   "postalCode": 40458,
   "cbNumber": "002131-6",
   "pNumber": 400031,
   "name": "台中五權路郵局",
   "cName": "台中31支",
   "city": "台中市",
   "district": "北區",
   "address": "五權路311、313號",
   "longitude": 120.678628,
   "latitude": 24.151951
 },
 {
   "postalCode": 41271,
   "cbNumber": "002132-0",
   "pNumber": 400032,
   "name": "大里草湖郵局",
   "cName": "台中32支",
   "city": "台中市",
   "district": "大里區",
   "address": "中興路一段298-3號",
   "longitude": 120.695072,
   "latitude": 24.089057
 },
 {
   "postalCode": 40150,
   "cbNumber": "002133-3",
   "pNumber": 400033,
   "name": "台中大智郵局",
   "cName": "台中33支",
   "city": "台中市",
   "district": "東區",
   "address": "建成路676、678號",
   "longitude": 120.689759,
   "latitude": 24.131643
 },
 {
   "postalCode": 41167,
   "cbNumber": "002134-7",
   "pNumber": 400034,
   "name": "太平郵局",
   "cName": "台中34支",
   "city": "台中市",
   "district": "太平區",
   "address": "中興東路25號",
   "longitude": 120.719692,
   "latitude": 24.129984
 },
 {
   "postalCode": 40646,
   "cbNumber": "002135-1",
   "pNumber": 400035,
   "name": "台中北屯郵局",
   "cName": "台中35支",
   "city": "台中市",
   "district": "北屯區",
   "address": "進化北路37-1號",
   "longitude": 120.691116,
   "latitude": 24.162781
 },
 {
   "postalCode": 40878,
   "cbNumber": "002136-4",
   "pNumber": 400036,
   "name": "台中東興路郵局",
   "cName": "台中36支",
   "city": "台中市",
   "district": "南屯區",
   "address": "東興路二段186號",
   "longitude": 120.653165,
   "latitude": 24.141374
 },
 {
   "postalCode": 40441,
   "cbNumber": "002137-8",
   "pNumber": 400037,
   "name": "台中漢口路郵局",
   "cName": "台中37支",
   "city": "台中市",
   "district": "北區",
   "address": "漢口路三段189號",
   "longitude": 120.671302,
   "latitude": 24.166978
 },
 {
   "postalCode": 40256,
   "cbNumber": "002138-1",
   "pNumber": 400038,
   "name": "台中樹仔腳郵局",
   "cName": "台中38支",
   "city": "台中市",
   "district": "南區",
   "address": "復興路一段236號",
   "longitude": 120.654717,
   "latitude": 24.114469
 },
 {
   "postalCode": 40680,
   "cbNumber": "002139-5",
   "pNumber": 400039,
   "name": "台中四張犁郵局",
   "cName": "台中39支",
   "city": "台中市",
   "district": "北屯區",
   "address": "豐樂路二段162號",
   "longitude": 120.679833,
   "latitude": 24.194794
 },
 {
   "postalCode": 40360,
   "cbNumber": "002140-7",
   "pNumber": 400040,
   "name": "台中公益路郵局",
   "cName": "台中40支",
   "city": "台中市",
   "district": "西區",
   "address": "公益路193號",
   "longitude": 120.660769,
   "latitude": 24.15076
 },
 {
   "postalCode": 40645,
   "cbNumber": "002141-1",
   "pNumber": 400041,
   "name": "台中大坑口郵局",
   "cName": "台中41支",
   "city": "台中市",
   "district": "北屯區",
   "address": "東山路一段38-1號",
   "longitude": 120.699346,
   "latitude": 24.170122
 },
 {
   "postalCode": 40141,
   "cbNumber": "002142-4",
   "pNumber": 400042,
   "name": "台中進化路郵局",
   "cName": "台中42支",
   "city": "台中市",
   "district": "東區",
   "address": "進化路184、186號",
   "longitude": 120.694551,
   "latitude": 24.146847
 },
 {
   "postalCode": 41171,
   "cbNumber": "002143-8",
   "pNumber": 400043,
   "name": "太平宜欣郵局",
   "cName": "台中43支",
   "city": "台中市",
   "district": "太平區",
   "address": "中山路四段27號",
   "longitude": 120.712558,
   "latitude": 24.149767
 },
 {
   "postalCode": 40746,
   "cbNumber": "002144-1",
   "pNumber": 400044,
   "name": "台中何厝郵局",
   "cName": "台中44支",
   "city": "台中市",
   "district": "西屯區",
   "address": "青海路一段83號",
   "longitude": 120.654197,
   "latitude": 24.16464
 },
 {
   "postalCode": 40255,
   "cbNumber": "002145-5",
   "pNumber": 400045,
   "name": "台中南和路郵局",
   "cName": "台中45支",
   "city": "台中市",
   "district": "南區",
   "address": "南和路42、44號",
   "longitude": 120.668968,
   "latitude": 24.116148
 },
 {
   "postalCode": 40755,
   "cbNumber": "002146-9",
   "pNumber": 400046,
   "name": "台中工業區郵局",
   "cName": "台中46支",
   "city": "台中市",
   "district": "西屯區",
   "address": "工業區六路10號",
   "longitude": 120.606564,
   "latitude": 24.16955
 },
 {
   "postalCode": 40844,
   "cbNumber": "002147-2",
   "pNumber": 400047,
   "name": "台中黎明郵局",
   "cName": "台中47支",
   "city": "台中市",
   "district": "南屯區",
   "address": "博愛街80巷49號",
   "longitude": 120.633097,
   "latitude": 24.153499
 },
 {
   "postalCode": 40678,
   "cbNumber": "002149-0",
   "pNumber": 400049,
   "name": "台中中清路郵局",
   "cName": "台中49支",
   "city": "台中市",
   "district": "北屯區",
   "address": "中清路二段830號",
   "longitude": 120.66362,
   "latitude": 24.186736
 },
 {
   "postalCode": 40344,
   "cbNumber": "002150-1",
   "pNumber": 400050,
   "name": "台中大全街郵局",
   "cName": "台中50支",
   "city": "台中市",
   "district": "西區",
   "address": "大全街42、44、46號",
   "longitude": 120.671105,
   "latitude": 24.136201
 },
 {
   "postalCode": 40705,
   "cbNumber": "002152-9",
   "pNumber": 400052,
   "name": "台中榮總郵局",
   "cName": "台中52支",
   "city": "台中市",
   "district": "西屯區",
   "address": "台灣大道四段1650號(台中榮總內)",
   "longitude": 120.604831,
   "latitude": 24.183986
 },
 {
   "postalCode": 40461,
   "cbNumber": "002153-2",
   "pNumber": 400053,
   "name": "台中淡溝郵局",
   "cName": "台中53支",
   "city": "台中市",
   "district": "北區",
   "address": "民權路365號",
   "longitude": 120.670349,
   "latitude": 24.157051
 },
 {
   "postalCode": 40644,
   "cbNumber": "002154-6",
   "pNumber": 400054,
   "name": "台中軍功郵局",
   "cName": "台中54支",
   "city": "台中市",
   "district": "北屯區",
   "address": "環中東路二段253號，255號",
   "longitude": 120.721148,
   "latitude": 24.175633
 },
 {
   "postalCode": 40459,
   "cbNumber": "002155-0",
   "pNumber": 400055,
   "name": "台中健行路郵局",
   "cName": "台中55支",
   "city": "台中市",
   "district": "北區",
   "address": "健行路190號",
   "longitude": 120.685963,
   "latitude": 24.159201
 },
 {
   "postalCode": 41261,
   "cbNumber": "002157-7",
   "pNumber": 400057,
   "name": "大里永隆郵局",
   "cName": "台中57支",
   "city": "台中市",
   "district": "大里區",
   "address": "永隆一街82號",
   "longitude": 120.678688,
   "latitude": 24.105263
 },
 {
   "postalCode": 41474,
   "cbNumber": "002159-4",
   "pNumber": 400059,
   "name": "烏日明道郵局",
   "cName": "台中59支",
   "city": "台中市",
   "district": "烏日區",
   "address": "仁德村信義街100號",
   "longitude": 120.640481,
   "latitude": 24.105478
 },
 {
   "postalCode": 41143,
   "cbNumber": "002160-6",
   "pNumber": 400060,
   "name": "太平永豐路郵局",
   "cName": "台中60支",
   "city": "台中市",
   "district": "太平區",
   "address": "永豐路338號",
   "longitude": 120.703534,
   "latitude": 24.113913
 },
 {
   "postalCode": 40763,
   "cbNumber": "002161-0",
   "pNumber": 400061,
   "name": "台中永安郵局",
   "cName": "台中61支",
   "city": "台中市",
   "district": "西屯區",
   "address": "永安里西屯路三段166-80號",
   "longitude": 120.612233,
   "latitude": 24.190566
 },
 {
   "postalCode": 40666,
   "cbNumber": "002163-7",
   "pNumber": 400063,
   "name": "台中文心路郵局",
   "cName": "台中63支",
   "city": "台中市",
   "district": "北屯區",
   "address": "文心路四段752號",
   "longitude": 120.688528,
   "latitude": 24.171626
 },
 {
   "postalCode": 40358,
   "cbNumber": "002165-4",
   "pNumber": 400065,
   "name": "台中英才郵局",
   "cName": "台中65支",
   "city": "台中市",
   "district": "西區",
   "address": "民生路200號",
   "longitude": 120.665568,
   "latitude": 24.144677
 },
 {
   "postalCode": 40675,
   "cbNumber": "002166-8",
   "pNumber": 400066,
   "name": "台中松竹郵局",
   "cName": "台中66支",
   "city": "台中市",
   "district": "北屯區",
   "address": "松竹北路110號",
   "longitude": 120.699294,
   "latitude": 24.185402
 },
 {
   "postalCode": 40759,
   "cbNumber": "002167-1",
   "pNumber": 400067,
   "name": "台中大隆路郵局",
   "cName": "台中67支",
   "city": "台中市",
   "district": "西屯區",
   "address": "大隆路60、62號",
   "longitude": 120.652786,
   "latitude": 24.156464
 },
 {
   "postalCode": 41466,
   "cbNumber": "002168-5",
   "pNumber": 400068,
   "name": "烏日溪壩郵局",
   "cName": "台中68支",
   "city": "台中市",
   "district": "烏日區",
   "address": "溪南路2段372號",
   "longitude": 120.643324,
   "latitude": 24.06135
 },
 {
   "postalCode": 40764,
   "cbNumber": "002169-9",
   "pNumber": 400069,
   "name": "台中福安郵局",
   "cName": "台中69支",
   "city": "台中市",
   "district": "西屯區",
   "address": "福順路318號",
   "longitude": 120.618611,
   "latitude": 24.183423
 },
 {
   "postalCode": 40867,
   "cbNumber": "002170-1",
   "pNumber": 400070,
   "name": "台中向上郵局",
   "cName": "台中70支",
   "city": "台中市",
   "district": "南屯區",
   "address": "向上路二段199號",
   "longitude": 120.641333,
   "latitude": 24.146617
 },
 {
   "postalCode": 42850,
   "cbNumber": "002171-4",
   "pNumber": 400071,
   "name": "大雅馬岡厝郵局",
   "cName": "台中71支",
   "city": "台中市",
   "district": "大雅區",
   "address": "西寶里昌平路四段82號",
   "longitude": 120.668123,
   "latitude": 24.217484
 },
 {
   "postalCode": 42056,
   "cbNumber": "014100-9",
   "pNumber": 420000,
   "name": "豐原郵局",
   "cName": "台中72支",
   "city": "台中市",
   "district": "豐原區",
   "address": "中正路298號",
   "longitude": 120.715018,
   "latitude": 24.251509
 },
 {
   "postalCode": 42955,
   "cbNumber": "014101-2",
   "pNumber": 420001,
   "name": "神岡郵局",
   "cName": "台中73支",
   "city": "台中市",
   "district": "神岡區",
   "address": "神岡路4號",
   "longitude": 120.662473,
   "latitude": 24.258162
 },
 {
   "postalCode": 42261,
   "cbNumber": "014102-6",
   "pNumber": 420002,
   "name": "石岡郵局",
   "cName": "台中74支",
   "city": "台中市",
   "district": "石岡區",
   "address": "石岡街86號",
   "longitude": 120.775203,
   "latitude": 24.276175
 },
 {
   "postalCode": 42047,
   "cbNumber": "014103-0",
   "pNumber": 420003,
   "name": "豐原中山路郵局",
   "cName": "台中75支",
   "city": "台中市",
   "district": "豐原區",
   "address": "大明路12號",
   "longitude": 120.710812,
   "latitude": 24.23967
 },
 {
   "postalCode": 42060,
   "cbNumber": "014104-3",
   "pNumber": 420004,
   "name": "豐原三民路郵局",
   "cName": "台中76支",
   "city": "台中市",
   "district": "豐原區",
   "address": "三民路108號",
   "longitude": 120.720005,
   "latitude": 24.253711
 },
 {
   "postalCode": 43343,
   "cbNumber": "014105-7",
   "pNumber": 420005,
   "name": "沙鹿北勢郵局",
   "cName": "台中77支",
   "city": "台中市",
   "district": "沙鹿區",
   "address": "東晉路253號",
   "longitude": 120.570295,
   "latitude": 24.223036
 },
 {
   "postalCode": 42954,
   "cbNumber": "014106-1",
   "pNumber": 420006,
   "name": "神岡圳堵郵局",
   "cName": "台 中78支",
   "city": "台中市",
   "district": "神岡區",
   "address": "神清路273號",
   "longitude": 120.656725,
   "latitude": 24.271074
 },
 {
   "postalCode": 42051,
   "cbNumber": "014107-4",
   "pNumber": 420007,
   "name": "豐原南陽郵局",
   "cName": "台中79支",
   "city": "台中市",
   "district": "豐原區",
   "address": "圓環東路402號",
   "longitude": 120.724892,
   "latitude": 24.245209
 },
 {
   "postalCode": 42085,
   "cbNumber": "014108-8",
   "pNumber": 420008,
   "name": "豐原翁子郵局",
   "cName": "台中80支",
   "city": "台中市",
   "district": "豐原區",
   "address": "豐勢路一段576、578號",
   "longitude": 120.734305,
   "latitude": 24.259594
 },
 {
   "postalCode": 42943,
   "cbNumber": "014109-1",
   "pNumber": 420009,
   "name": "神岡社口郵局",
   "cName": "台中81支",
   "city": "台中市",
   "district": "神岡區",
   "address": "中山路611號",
   "longitude": 120.682132,
   "latitude": 24.246794
 },
 {
   "postalCode": 42079,
   "cbNumber": "014111-7",
   "pNumber": 420011,
   "name": "豐原葫蘆墩郵局",
   "cName": "台中83支",
   "city": "台中市",
   "district": "豐原區",
   "address": "豐原大道七段25號",
   "longitude": 120.719533,
   "latitude": 24.263908
 },
 {
   "postalCode": 42950,
   "cbNumber": "014112-1",
   "pNumber": 420012,
   "name": "神岡岸裡郵局",
   "cName": "台中84支",
   "city": "台中市",
   "district": "神岡區",
   "address": "中山路49號",
   "longitude": 120.698061,
   "latitude": 24.248572
 },
 {
   "postalCode": 42080,
   "cbNumber": "014113-4",
   "pNumber": 420013,
   "name": "豐原水源郵局",
   "cName": "台中85支",
   "city": "台中市",
   "district": "豐原區",
   "address": "水源路594-2號",
   "longitude": 120.72882,
   "latitude": 24.255178
 },
 {
   "postalCode": 42151,
   "cbNumber": "014114-8",
   "pNumber": 420014,
   "name": "后里郵局",
   "cName": "台中86支",
   "city": "台中市",
   "district": "后里區",
   "address": "公安路77號",
   "longitude": 120.710849,
   "latitude": 24.304657
 },
 {
   "postalCode": 42945,
   "cbNumber": "014115-1",
   "pNumber": 420015,
   "name": "神岡豐洲郵局",
   "cName": "台中87支",
   "city": "台中市",
   "district": "神岡區",
   "address": "豐洲路359號",
   "longitude": 120.705954,
   "latitude": 24.260942
 },
 {
   "postalCode": 42141,
   "cbNumber": "014116-5",
   "pNumber": 420016,
   "name": "后里義里郵局",
   "cName": "台中88支",
   "city": "台中市",
   "district": "后里區",
   "address": "甲后路一段219號",
   "longitude": 120.727787,
   "latitude": 24.309037
 },
 {
   "postalCode": 42146,
   "cbNumber": "014117-9",
   "pNumber": 420017,
   "name": "后里月眉郵局",
   "cName": "台中89支",
   "city": "台中市",
   "district": "后里區",
   "address": "甲后路二段377號",
   "longitude": 120.69378,
   "latitude": 24.313543
 },
 {
   "postalCode": 42343,
   "cbNumber": "014118-2",
   "pNumber": 420018,
   "name": "東勢郵局",
   "cName": "台中90支",
   "city": "台中市",
   "district": "東勢區",
   "address": "中山路43號",
   "longitude": 120.83004,
   "latitude": 24.257139
 },
 {
   "postalCode": 42444,
   "cbNumber": "014119-6",
   "pNumber": 420019,
   "name": "和平谷關郵局",
   "cName": "台中91支",
   "city": "台中市",
   "district": "和平區",
   "address": "博愛里東關路一段106號",
   "longitude": 121.006226,
   "latitude": 24.203138
 },
 {
   "postalCode": 42645,
   "cbNumber": "014120-8",
   "pNumber": 420020,
   "name": "新社中興嶺郵局",
   "cName": "台中92支",
   "city": "台中市",
   "district": "新社區",
   "address": "中興嶺170-2號",
   "longitude": 120.79436,
   "latitude": 24.205695
 },
 {
   "postalCode": 42354,
   "cbNumber": "014121-1",
   "pNumber": 420021,
   "name": "東勢中嵙口郵局",
   "cName": "台中93支",
   "city": "台中市",
   "district": "東勢區",
   "address": "豐勢路188、190號",
   "longitude": 120.83052,
   "latitude": 24.250418
 },
 {
   "postalCode": 42447,
   "cbNumber": "014122-5",
   "pNumber": 420022,
   "name": "和平梨山郵局",
   "cName": "台中94支",
   "city": "台中市",
   "district": "和平區",
   "address": "梨山里中正路89號",
   "longitude": 121.25206,
   "latitude": 24.254175
 },
 {
   "postalCode": 42641,
   "cbNumber": "014123-9",
   "pNumber": 420023,
   "name": "新社郵局",
   "cName": "台中95支",
   "city": "台中市",
   "district": "新社區",
   "address": "中和街五段1號",
   "longitude": 120.808768,
   "latitude": 24.247862
 },
 {
   "postalCode": 42082,
   "cbNumber": "014124-2",
   "pNumber": 420024,
   "name": "豐原鐮村郵局",
   "cName": "台中96支",
   "city": "台中市",
   "district": "豐原區",
   "address": "鐮村路169號",
   "longitude": 120.724462,
   "latitude": 24.231247
 },
 {
   "postalCode": 42441,
   "cbNumber": "014125-6",
   "pNumber": 420025,
   "name": "和平郵局",
   "cName": "台中97支",
   "city": "台中市",
   "district": "和平區",
   "address": "南勢里東關路三段160-9號",
   "longitude": 120.88299,
   "latitude": 24.174806
 },
 {
   "postalCode": 42751,
   "cbNumber": "014126-0",
   "pNumber": 420026,
   "name": "潭子郵局",
   "cName": "台中98支",
   "city": "台中市",
   "district": "潭子區",
   "address": "潭興路三段42號",
   "longitude": 120.703732,
   "latitude": 24.211706
 },
 {
   "postalCode": 42760,
   "cbNumber": "014127-3",
   "pNumber": 420027,
   "name": "潭子加工區郵局",
   "cName": "台中99支",
   "city": "台中市",
   "district": "潭子區",
   "address": "南二路1-1號",
   "longitude": 120.705258,
   "latitude": 24.216745
 },
 {
   "postalCode": 42755,
   "cbNumber": "014128-7",
   "pNumber": 420028,
   "name": "潭子頭家厝郵局",
   "cName": "台中100支",
   "city": "台中市",
   "district": "潭子區",
   "address": "中山路一段25號",
   "longitude": 120.70237,
   "latitude": 24.191015
 },
 {
   "postalCode": 42758,
   "cbNumber": "014129-1",
   "pNumber": 420029,
   "name": "潭子東寶郵局",
   "cName": "台中101支",
   "city": "台中市",
   "district": "潭子區",
   "address": "昌平路三段116號",
   "longitude": 120.674594,
   "latitude": 24.203303
 },
 {
   "postalCode": 42754,
   "cbNumber": "014130-2",
   "pNumber": 420030,
   "name": "潭子栗林郵局",
   "cName": "台中102支",
   "city": "台中市",
   "district": "潭子區",
   "address": "中山路三段334號",
   "longitude": 120.709045,
   "latitude": 24.231515
 },
 {
   "postalCode": 42751,
   "cbNumber": "014131-6",
   "pNumber": 420031,
   "name": "潭子潭北郵局",
   "cName": "台中103支",
   "city": "台中市",
   "district": "潭子區",
   "address": "潭子街三段55號",
   "longitude": 120.706452,
   "latitude": 24.214579
 },
 {
   "postalCode": 43748,
   "cbNumber": "014132-0",
   "pNumber": 420032,
   "name": "大甲郵局",
   "cName": "台中104支",
   "city": "台中市",
   "district": "大甲區",
   "address": "新政路1號",
   "longitude": 120.62748,
   "latitude": 24.347418
 },
 {
   "postalCode": 43951,
   "cbNumber": "014133-3",
   "pNumber": 420033,
   "name": "大安郵局",
   "cName": "台中105支",
   "city": "台中市",
   "district": "大安區",
   "address": "中山南路343號",
   "longitude": 120.586033,
   "latitude": 24.346358
 },
 {
   "postalCode": 43741,
   "cbNumber": "014134-7",
   "pNumber": 420034,
   "name": "大甲廟口郵局",
   "cName": "台中106支",
   "city": "台中市",
   "district": "大甲區",
   "address": "順天路159號",
   "longitude": 120.622263,
   "latitude": 24.345132
 },
 {
   "postalCode": 43856,
   "cbNumber": "014135-1",
   "pNumber": 420035,
   "name": "外埔郵局",
   "cName": "台中107支",
   "city": "台中市",
   "district": "外埔區",
   "address": "甲后路三段923號",
   "longitude": 120.654862,
   "latitude": 24.330192
 },
 {
   "postalCode": 43769,
   "cbNumber": "014136-4",
   "pNumber": 420036,
   "name": "大甲日南郵局",
   "cName": "台中108支",
   "city": "台中市",
   "district": "大甲區",
   "address": "中山路二段233號",
   "longitude": 120.655142,
   "latitude": 24.381275
 },
 {
   "postalCode": 43767,
   "cbNumber": "014137-8",
   "pNumber": 420037,
   "name": "大甲幼獅郵局",
   "cName": "台中109支",
   "city": "台中市",
   "district": "大甲區",
   "address": "幼獅路45號",
   "longitude": 120.652036,
   "latitude": 24.405303
 },
 {
   "postalCode": 43749,
   "cbNumber": "014138-1",
   "pNumber": 420038,
   "name": "大甲庄美郵局",
   "cName": "台中110支",
   "city": "台中市",
   "district": "大甲區",
   "address": "經國路768號",
   "longitude": 120.619219,
   "latitude": 24.35478
 },
 {
   "postalCode": 43542,
   "cbNumber": "014139-5",
   "pNumber": 420039,
   "name": "台中港郵局",
   "cName": "台中111支",
   "city": "台中市",
   "district": "梧棲區",
   "address": "四維路129號",
   "longitude": 120.537144,
   "latitude": 24.262285
 },
 {
   "postalCode": 43350,
   "cbNumber": "014140-7",
   "pNumber": 420040,
   "name": "沙鹿郵局",
   "cName": "台中112支",
   "city": "台中市",
   "district": "沙鹿區",
   "address": "中山路341號",
   "longitude": 120.559878,
   "latitude": 24.239262
 },
 {
   "postalCode": 43653,
   "cbNumber": "014141-1",
   "pNumber": 420041,
   "name": "清水郵局",
   "cName": "台中113支",
   "city": "台中市",
   "district": "清水區",
   "address": "中山路124號",
   "longitude": 120.575275,
   "latitude": 24.268078
 },
 {
   "postalCode": 43541,
   "cbNumber": "014142-4",
   "pNumber": 420042,
   "name": "梧棲郵局",
   "cName": "台中114支",
   "city": "台中市",
   "district": "梧棲區",
   "address": "梧棲路173號",
   "longitude": 120.5297,
   "latitude": 24.257617
 },
 {
   "postalCode": 43452,
   "cbNumber": "014143-8",
   "pNumber": 420043,
   "name": "龍井郵局",
   "cName": "台中115支",
   "city": "台中市",
   "district": "龍井區",
   "address": "龍新路163號",
   "longitude": 120.547048,
   "latitude": 24.196737
 },
 {
   "postalCode": 43344,
   "cbNumber": "014144-1",
   "pNumber": 420044,
   "name": "沙鹿鹿寮郵局",
   "cName": "台中116支",
   "city": "台中市",
   "district": "沙鹿區",
   "address": "中山路584-1號",
   "longitude": 120.5676,
   "latitude": 24.252905
 },
 {
   "postalCode": 43448,
   "cbNumber": "014145-5",
   "pNumber": 420045,
   "name": "龍井新庄郵局",
   "cName": "台中117支",
   "city": "台中市",
   "district": "龍井區",
   "address": "遊園南路171號",
   "longitude": 120.58438,
   "latitude": 24.182433
 },
 {
   "postalCode": 43444,
   "cbNumber": "014146-9",
   "pNumber": 420046,
   "name": "龍井茄投郵局",
   "cName": "台中118支",
   "city": "台中市",
   "district": "龍井區",
   "address": "舊車路101之2號",
   "longitude": 120.530797,
   "latitude": 24.183519
 },
 {
   "postalCode": 43301,
   "cbNumber": "014147-2",
   "pNumber": 420047,
   "name": "靜宜大學郵局",
   "cName": "台中119支",
   "city": "台中市",
   "district": "沙鹿區",
   "address": "台灣大道七段200號",
   "longitude": 120.579894,
   "latitude": 24.228276
 },
 {
   "postalCode": 43648,
   "cbNumber": "014148-6",
   "pNumber": 420048,
   "name": "清水南社郵局",
   "cName": "台中120支",
   "city": "台中市",
   "district": "清水區",
   "address": "忠貞路39號",
   "longitude": 120.558199,
   "latitude": 24.271932
 },
 {
   "postalCode": 43646,
   "cbNumber": "014149-0",
   "pNumber": 420049,
   "name": "清水田寮郵局",
   "cName": "台中121支",
   "city": "台中市",
   "district": "清水區",
   "address": "高美路162-14號",
   "longitude": 120.575081,
   "latitude": 24.281499
 },
 {
   "postalCode": 43545,
   "cbNumber": "014151-5",
   "pNumber": 420051,
   "name": "梧棲大庄郵局",
   "cName": "台中123支",
   "city": "台中市",
   "district": "梧棲區",
   "address": "中央路一段921-2號",
   "longitude": 120.538378,
   "latitude": 24.24831
 },
 {
   "postalCode": 43242,
   "cbNumber": "014152-9",
   "pNumber": 420052,
   "name": "大肚郵局",
   "cName": "台中124支",
   "city": "台中市",
   "district": "大肚區",
   "address": "沙田路二段666號",
   "longitude": 120.54552,
   "latitude": 24.15152
 },
 {
   "postalCode": 43246,
   "cbNumber": "014153-2",
   "pNumber": 420053,
   "name": "大肚追分郵局",
   "cName": "台中125支",
   "city": "台中市",
   "district": "大肚區",
   "address": "沙田路一段564-5號",
   "longitude": 120.561717,
   "latitude": 24.125321
 },
 {
   "postalCode": 43250,
   "cbNumber": "014154-6",
   "pNumber": 420054,
   "name": "大肚蔗廍郵局",
   "cName": "台中126支",
   "city": "台中市",
   "district": "大肚區",
   "address": "遊園路二段65、67號",
   "longitude": 120.579588,
   "latitude": 24.170391
 },
 {
   "postalCode": 43451,
   "cbNumber": "014155-0",
   "pNumber": 420055,
   "name": "龍井龍津郵局",
   "cName": "台中127支",
   "city": "台中市",
   "district": "龍井區",
   "address": "中央路一段246、248號",
   "longitude": 120.523537,
   "latitude": 24.202584
 },
 {
   "postalCode": 70401,
   "cbNumber": "003100-5",
   "pNumber": 704000,
   "name": "台南成功路郵局",
   "cName": "台南901支",
   "city": "台南市",
   "district": "北區",
   "address": "成功路6、8號",
   "longitude": 120.210563,
   "latitude": 22.997692
 },
 {
   "postalCode": 70242,
   "cbNumber": "003101-9",
   "pNumber": 704001,
   "name": "台南西門路郵局",
   "cName": "台南1支",
   "city": "台南市",
   "district": "南區",
   "address": "西門路一段681號",
   "longitude": 120.197363,
   "latitude": 22.986728
 },
 {
   "postalCode": 70052,
   "cbNumber": "003102-2",
   "pNumber": 704002,
   "name": "台南水交社郵局",
   "cName": "台南2支",
   "city": "台南市",
   "district": "中西區",
   "address": "健康路一段260號",
   "longitude": 120.204368,
   "latitude": 22.981478
 },
 {
   "postalCode": 70044,
   "cbNumber": "003103-6",
   "pNumber": 704003,
   "name": "台南興華街郵局",
   "cName": "台南3支",
   "city": "台南市",
   "district": "中西區",
   "address": "興華街37號",
   "longitude": 120.21128,
   "latitude": 22.992598
 },
 {
   "postalCode": 70841,
   "cbNumber": "003104-0",
   "pNumber": 704004,
   "name": "台南安平郵局",
   "cName": "台南4支",
   "city": "台南市",
   "district": "安平區",
   "address": "安北路125號",
   "longitude": 120.163294,
   "latitude": 23.00257
 },
 {
   "postalCode": 70048,
   "cbNumber": "003105-3",
   "pNumber": 704005,
   "name": "台南中正路郵局",
   "cName": "台南5支",
   "city": "台南市",
   "district": "中西區",
   "address": "中正路42號",
   "longitude": 120.202212,
   "latitude": 22.992156
 },
 {
   "postalCode": 71754,
   "cbNumber": "003106-7",
   "pNumber": 704006,
   "name": "仁德車路墘郵局",
   "cName": "台南6支",
   "city": "台南市",
   "district": "仁德區",
   "address": "中正路一段32號",
   "longitude": 120.227319,
   "latitude": 22.918956
 },
 {
   "postalCode": 70101,
   "cbNumber": "003107-1",
   "pNumber": 704007,
   "name": "成功大學郵局",
   "cName": "台南7支",
   "city": "台南市",
   "district": "東區",
   "address": "大學路１號（光復校區內，近大學路西段校門口）",
   "longitude": 120.217489,
   "latitude": 22.997394
 },
 {
   "postalCode": 71052,
   "cbNumber": "003108-4",
   "pNumber": 704008,
   "name": "永康網寮郵局",
   "cName": "台南8支",
   "city": "台南市",
   "district": "永康區",
   "address": "小東路481、483號",
   "longitude": 120.235435,
   "latitude": 22.998598
 },
 {
   "postalCode": 71143,
   "cbNumber": "003109-8",
   "pNumber": 704009,
   "name": "歸仁郵局",
   "cName": "台南9支",
   "city": "台南市",
   "district": "歸仁區",
   "address": "中山路一段637號",
   "longitude": 120.294648,
   "latitude": 22.966441
 },
 {
   "postalCode": 71089,
   "cbNumber": "003110-0",
   "pNumber": 704010,
   "name": "永康郵局",
   "cName": "台南10支",
   "city": "台南市",
   "district": "永康區",
   "address": "中山路78號",
   "longitude": 120.256792,
   "latitude": 23.02812
 },
 {
   "postalCode": 71067,
   "cbNumber": "003111-3",
   "pNumber": 704011,
   "name": "永康六甲頂郵局",
   "cName": "台南11支",
   "city": "台南市",
   "district": "永康區",
   "address": "中正南路160號",
   "longitude": 120.217094,
   "latitude": 23.022539
 },
 {
   "postalCode": 70173,
   "cbNumber": "003112-7",
   "pNumber": 704012,
   "name": "台南德高厝郵局",
   "cName": "台南12支",
   "city": "台南市",
   "district": "東區",
   "address": "崇德路678號",
   "longitude": 120.227413,
   "latitude": 22.967322
 },
 {
   "postalCode": 70060,
   "cbNumber": "003113-1",
   "pNumber": 704013,
   "name": "台南永樂郵局",
   "cName": "台南13支",
   "city": "台南市",
   "district": "中西區",
   "address": "民族路三段282號",
   "longitude": 120.192423,
   "latitude": 23.000201
 },
 {
   "postalCode": 70055,
   "cbNumber": "003114-4",
   "pNumber": 704014,
   "name": "台南友愛街郵局",
   "cName": "台南14支",
   "city": "台南市",
   "district": "中西區",
   "address": "友愛街318號",
   "longitude": 120.193749,
   "latitude": 22.992712
 },
 {
   "postalCode": 70049,
   "cbNumber": "003115-8",
   "pNumber": 704015,
   "name": "台南南門路郵局",
   "cName": "台南15支",
   "city": "台南市",
   "district": "中西區",
   "address": "南門路93號",
   "longitude": 120.204662,
   "latitude": 22.988728
 },
 {
   "postalCode": 71757,
   "cbNumber": "003116-1",
   "pNumber": 704016,
   "name": "仁德太子郵局",
   "cName": "台南16支",
   "city": "台南市",
   "district": "仁德區",
   "address": "土庫路2號",
   "longitude": 120.260394,
   "latitude": 22.991146
 },
 {
   "postalCode": 70448,
   "cbNumber": "003117-5",
   "pNumber": 704017,
   "name": "台南西華郵局",
   "cName": "台南17支",
   "city": "台南市",
   "district": "北區",
   "address": "公園路176-1號",
   "longitude": 120.208032,
   "latitude": 22.99975
 },
 {
   "postalCode": 70141,
   "cbNumber": "003118-9",
   "pNumber": 704018,
   "name": "台南東城郵局",
   "cName": "台南18支",
   "city": "台南市",
   "district": "東區",
   "address": "府連路433、435號",
   "longitude": 120.217035,
   "latitude": 22.986275
 },
 {
   "postalCode": 70456,
   "cbNumber": "003119-2",
   "pNumber": 704019,
   "name": "台南開元路郵局",
   "cName": "台南19支",
   "city": "台南市",
   "district": "北區",
   "address": "開元路162號",
   "longitude": 120.219758,
   "latitude": 23.007085
 },
 {
   "postalCode": 70263,
   "cbNumber": "003120-4",
   "pNumber": 704020,
   "name": "台南大同路郵局",
   "cName": "台南20支",
   "city": "台南市",
   "district": "南區",
   "address": "大同路二段410號",
   "longitude": 120.214181,
   "latitude": 22.974457
 },
 {
   "postalCode": 71078,
   "cbNumber": "003121-8",
   "pNumber": 704021,
   "name": "永康二王郵局",
   "cName": "台南21支",
   "city": "台南市",
   "district": "永康區",
   "address": "中山南路363號",
   "longitude": 120.245768,
   "latitude": 23.020788
 },
 {
   "postalCode": 70042,
   "cbNumber": "003122-1",
   "pNumber": 704022,
   "name": "台南普濟郵局",
   "cName": "台南22支",
   "city": "台南市",
   "district": "中西區",
   "address": "西門路二段366號",
   "longitude": 120.20061,
   "latitude": 22.9983
 },
 {
   "postalCode": 70258,
   "cbNumber": "003123-5",
   "pNumber": 704023,
   "name": "台南灣裡郵局",
   "cName": "台南23支",
   "city": "台南市",
   "district": "南區",
   "address": "灣裡路67號",
   "longitude": 120.180991,
   "latitude": 22.932275
 },
 {
   "postalCode": 71746,
   "cbNumber": "003124-9",
   "pNumber": 704024,
   "name": "仁德二空郵局",
   "cName": "台南24支",
   "city": "台南市",
   "district": "仁德區",
   "address": "二空路65號",
   "longitude": 120.223192,
   "latitude": 22.9586
 },
 {
   "postalCode": 70447,
   "cbNumber": "003125-2",
   "pNumber": 704025,
   "name": "台南大光郵局",
   "cName": "台南25支",
   "city": "台南市",
   "district": "北區",
   "address": "長榮路五段266號",
   "longitude": 120.218096,
   "latitude": 23.012843
 },
 {
   "postalCode": 70157,
   "cbNumber": "003126-6",
   "pNumber": 704026,
   "name": "台南東門郵局",
   "cName": "台南26支",
   "city": "台南市",
   "district": "東區",
   "address": "東門路二段216號",
   "longitude": 120.223883,
   "latitude": 22.98488
 },
 {
   "postalCode": 71749,
   "cbNumber": "003127-0",
   "pNumber": 704027,
   "name": "仁德郵局",
   "cName": "台南27支",
   "city": "台南市",
   "district": "仁德區",
   "address": "中正路二段1118號",
   "longitude": 120.252186,
   "latitude": 22.969735
 },
 {
   "postalCode": 70160,
   "cbNumber": "003128-3",
   "pNumber": 704028,
   "name": "台南東寧路郵局",
   "cName": "台南28支",
   "city": "台南市",
   "district": "東區",
   "address": "東寧路323號",
   "longitude": 120.227612,
   "latitude": 22.990309
 },
 {
   "postalCode": 70445,
   "cbNumber": "003129-7",
   "pNumber": 704029,
   "name": "台南北小北郵局",
   "cName": "台南29支",
   "city": "台南市",
   "district": "北區",
   "address": "西門路四段482號",
   "longitude": 120.211184,
   "latitude": 23.016531
 },
 {
   "postalCode": 71077,
   "cbNumber": "003130-9",
   "pNumber": 704030,
   "name": "永康大灣郵局",
   "cName": "台南30支",
   "city": "台南市",
   "district": "永康區",
   "address": "民族路244號",
   "longitude": 120.2689,
   "latitude": 23.00627
 },
 {
   "postalCode": 70959,
   "cbNumber": "003131-2",
   "pNumber": 704031,
   "name": "台南和順郵局",
   "cName": "台南31支",
   "city": "台南市",
   "district": "安南區",
   "address": "安和路5段119號",
   "longitude": 120.21822,
   "latitude": 23.065486
 },
 {
   "postalCode": 71072,
   "cbNumber": "003132-6",
   "pNumber": 704032,
   "name": "永康鹽行郵局",
   "cName": "台南32支",
   "city": "台南市",
   "district": "永康區",
   "address": "中正北路79號",
   "longitude": 120.239937,
   "latitude": 23.041732
 },
 {
   "postalCode": 70251,
   "cbNumber": "003133-0",
   "pNumber": 704033,
   "name": "台南鹽埕郵局",
   "cName": "台南33支",
   "city": "台南市",
   "district": "南區",
   "address": "金華路一段292號",
   "longitude": 120.190456,
   "latitude": 22.968416
 },
 {
   "postalCode": 70941,
   "cbNumber": "003134-3",
   "pNumber": 704034,
   "name": "台南安順郵局",
   "cName": "台南34支",
   "city": "台南市",
   "district": "安南區",
   "address": "安和路一段430號",
   "longitude": 120.213189,
   "latitude": 23.034823
 },
 {
   "postalCode": 70268,
   "cbNumber": "003135-7",
   "pNumber": 704035,
   "name": "台南新義郵局",
   "cName": "台南35支",
   "city": "台南市",
   "district": "南區",
   "address": "安平工業區新義路1號",
   "longitude": 120.183143,
   "latitude": 22.969979
 },
 {
   "postalCode": 70960,
   "cbNumber": "003136-1",
   "pNumber": 704036,
   "name": "台南安南郵局",
   "cName": "台南36支",
   "city": "台南市",
   "district": "安南區",
   "address": "安中路三段106號",
   "longitude": 120.181204,
   "latitude": 23.047828
 },
 {
   "postalCode": 70262,
   "cbNumber": "003137-4",
   "pNumber": 704037,
   "name": "台南金華郵局",
   "cName": "台南37支",
   "city": "台南市",
   "district": "南區",
   "address": "健康路二段182號",
   "longitude": 120.192763,
   "latitude": 22.981644
 },
 {
   "postalCode": 70950,
   "cbNumber": "003138-8",
   "pNumber": 704038,
   "name": "台南海佃郵局",
   "cName": "台南38支",
   "city": "台南市",
   "district": "安南區",
   "address": "國安街8號",
   "longitude": 120.191449,
   "latitude": 23.022882
 },
 {
   "postalCode": 70948,
   "cbNumber": "003139-1",
   "pNumber": 704039,
   "name": "台南土城郵局",
   "cName": "台南39支",
   "city": "台南市",
   "district": "安南區",
   "address": "安中路六段712號",
   "longitude": 120.128419,
   "latitude": 23.065031
 },
 {
   "postalCode": 70154,
   "cbNumber": "003140-3",
   "pNumber": 704040,
   "name": "台南小東郵局",
   "cName": "台南40支",
   "city": "台南市",
   "district": "東區",
   "address": "東和路45、47、49號",
   "longitude": 120.22945,
   "latitude": 22.998582
 },
 {
   "postalCode": 71079,
   "cbNumber": "003142-1",
   "pNumber": 704042,
   "name": "永康大橋郵局",
   "cName": "台南42支",
   "city": "台南市",
   "district": "永康區",
   "address": "中華路473號1F",
   "longitude": 120.231838,
   "latitude": 23.011241
 },
 {
   "postalCode": 71087,
   "cbNumber": "003143-4",
   "pNumber": 704043,
   "name": "永康崑山郵局",
   "cName": "台南43支",
   "city": "台南市",
   "district": "永康區",
   "address": "永大路二段3號",
   "longitude": 120.259367,
   "latitude": 23.000759
 },
 {
   "postalCode": 71743,
   "cbNumber": "003145-1",
   "pNumber": 704045,
   "name": "仁德後壁厝郵局",
   "cName": "台南45支",
   "city": "台南市",
   "district": "仁德區",
   "address": "中正路二段417、419號",
   "longitude": 120.252016,
   "latitude": 22.954028
 },
 {
   "postalCode": 71041,
   "cbNumber": "003146-5",
   "pNumber": 704046,
   "name": "永康王行郵局",
   "cName": "台南46支",
   "city": "台南市",
   "district": "永康區",
   "address": "永康工業區環工路6號",
   "longitude": 120.274457,
   "latitude": 23.04912
 },
 {
   "postalCode": 70943,
   "cbNumber": "003147-9",
   "pNumber": 704047,
   "name": "台南原佃郵局",
   "cName": "台南47支",
   "city": "台南市",
   "district": "安南區",
   "address": "怡安路二段462號",
   "longitude": 120.197446,
   "latitude": 23.044386
 },
 {
   "postalCode": 70451,
   "cbNumber": "003148-2",
   "pNumber": 704048,
   "name": "台南文元郵局",
   "cName": "台南48支",
   "city": "台南市",
   "district": "北區",
   "address": "文成路765號",
   "longitude": 120.195173,
   "latitude": 23.012168
 },
 {
   "postalCode": 70162,
   "cbNumber": "003149-6",
   "pNumber": 704049,
   "name": "台南虎尾寮郵局",
   "cName": "台南49支",
   "city": "台南市",
   "district": "東區",
   "address": "自由路三段386號",
   "longitude": 120.237291,
   "latitude": 22.982543
 },
 {
   "postalCode": 71143,
   "cbNumber": "003150-8",
   "pNumber": 704050,
   "name": "歸仁南保郵局",
   "cName": "台南50支",
   "city": "台南市",
   "district": "歸仁區",
   "address": "中山路一段637號",
   "longitude": 120.294648,
   "latitude": 22.966441
 },
 {
   "postalCode": 71845,
   "cbNumber": "003159-1",
   "pNumber": 704059,
   "name": "關廟郵局",
   "cName": "台南59支",
   "city": "台南市",
   "district": "關廟區",
   "address": "中央路222號",
   "longitude": 120.329195,
   "latitude": 22.960795
 },
 {
   "postalCode": 71942,
   "cbNumber": "003160-2",
   "pNumber": 704060,
   "name": "龍崎郵局",
   "cName": "台南60支",
   "city": "台南市",
   "district": "龍崎區",
   "address": "崎頂里新市仔186號",
   "longitude": 120.360434,
   "latitude": 22.965292
 },
 {
   "postalCode": 71846,
   "cbNumber": "003161-6",
   "pNumber": 704061,
   "name": "關廟文衡路郵局",
   "cName": "台南61支",
   "city": "台南市",
   "district": "關廟區",
   "address": "文衡路20號",
   "longitude": 120.326175,
   "latitude": 22.960814
 },
 {
   "postalCode": 70848,
   "cbNumber": "003162-0",
   "pNumber": 704062,
   "name": "台南新南郵局",
   "cName": "台南62支",
   "city": "台南市",
   "district": "安平區",
   "address": "永華三街6號",
   "longitude": 120.181603,
   "latitude": 22.99066
 },
 {
   "postalCode": 70802,
   "cbNumber": "003163-3",
   "pNumber": 704063,
   "name": "台南地方法院郵局",
   "cName": "台南63支",
   "city": "台南市",
   "district": "安平區",
   "address": "健康路三段308號",
   "longitude": 120.171462,
   "latitude": 22.985147
 },
 {
   "postalCode": 70843,
   "cbNumber": "003164-7",
   "pNumber": 704064,
   "name": "台南育平郵局",
   "cName": "台南64支",
   "city": "台南市",
   "district": "安平區",
   "address": "育平路333號",
   "longitude": 120.167358,
   "latitude": 22.992991
 },
 {
   "postalCode": 80027,
   "cbNumber": "004100-1",
   "pNumber": 800000,
   "name": "新興郵局",
   "cName": "高雄901支",
   "city": "高雄市",
   "district": "新興區",
   "address": "中正三路177、179號",
   "longitude": 120.303875,
   "latitude": 22.631026
 },
 {
   "postalCode": 81356,
   "cbNumber": "004101-5",
   "pNumber": 800001,
   "name": "左營華夏路郵局",
   "cName": "高雄1支",
   "city": "高雄市",
   "district": "左營區",
   "address": "華夏路390號",
   "longitude": 120.29867,
   "latitude": 22.673093
 },
 {
   "postalCode": 80249,
   "cbNumber": "004102-9",
   "pNumber": 800002,
   "name": "苓雅郵局",
   "cName": "高雄2支",
   "city": "高雄市",
   "district": "苓雅區",
   "address": "成功一路134號",
   "longitude": 120.297704,
   "latitude": 22.614658
 },
 {
   "postalCode": 80542,
   "cbNumber": "004103-2",
   "pNumber": 800003,
   "name": "旗津郵局",
   "cName": "高雄3支",
   "city": "高雄市",
   "district": "旗津區",
   "address": "中洲三路817號",
   "longitude": 120.26939,
   "latitude": 22.612494
 },
 {
   "postalCode": 80344,
   "cbNumber": "004105-0",
   "pNumber": 800005,
   "name": "鹽埕郵局",
   "cName": "高雄5支",
   "city": "高雄市",
   "district": "鹽埕區",
   "address": "五福四路133號",
   "longitude": 120.284289,
   "latitude": 22.623054
 },
 {
   "postalCode": 81166,
   "cbNumber": "004106-3",
   "pNumber": 800006,
   "name": "楠梓郵局",
   "cName": "高雄6支",
   "city": "高雄市",
   "district": "楠梓區",
   "address": "楠梓新路247號",
   "longitude": 120.325811,
   "latitude": 22.728343
 },
 {
   "postalCode": 81346,
   "cbNumber": "004107-7",
   "pNumber": 800007,
   "name": "左營郵局",
   "cName": "高雄7支",
   "city": "高雄市",
   "district": "左營區",
   "address": "實踐路43號",
   "longitude": 120.293529,
   "latitude": 22.69017
 },
 {
   "postalCode": 80748,
   "cbNumber": "004108-1",
   "pNumber": 800008,
   "name": "高雄站前郵局",
   "cName": "高雄8支",
   "city": "高雄市",
   "district": "三民區",
   "address": "建國三路2-2號",
   "longitude": 120.301065,
   "latitude": 22.638405
 },
 {
   "postalCode": 80443,
   "cbNumber": "004109-4",
   "pNumber": 800009,
   "name": "鼓山郵局",
   "cName": "高雄9支",
   "city": "高雄市",
   "district": "鼓山區",
   "address": "臨海二路17號",
   "longitude": 120.273815,
   "latitude": 22.621805
 },
 {
   "postalCode": 80141,
   "cbNumber": "004110-6",
   "pNumber": 800010,
   "name": "前金郵局",
   "cName": "高雄10支",
   "city": "高雄市",
   "district": "前金區",
   "address": "六合二路147號",
   "longitude": 120.296076,
   "latitude": 22.631011
 },
 {
   "postalCode": 80448,
   "cbNumber": "004111-0",
   "pNumber": 800011,
   "name": "高雄內惟郵局",
   "cName": "高雄11支",
   "city": "高雄市",
   "district": "鼓山區",
   "address": "九如四路1020、1022號",
   "longitude": 120.279272,
   "latitude": 22.655576
 },
 {
   "postalCode": 81465,
   "cbNumber": "004112-3",
   "pNumber": 800012,
   "name": "仁武台塑郵局",
   "cName": "高雄12支",
   "city": "高雄市",
   "district": "仁武區",
   "address": "水管路100-1號",
   "longitude": 120.336195,
   "latitude": 22.70588
 },
 {
   "postalCode": 81347,
   "cbNumber": "004113-7",
   "pNumber": 800013,
   "name": "左營南站郵局",
   "cName": "高雄13支",
   "city": "高雄市",
   "district": "左營區",
   "address": "左營大路75號",
   "longitude": 120.288149,
   "latitude": 22.682146
 },
 {
   "postalCode": 81355,
   "cbNumber": "004114-1",
   "pNumber": 800014,
   "name": "左營果貿郵局",
   "cName": "高雄14支",
   "city": "高雄市",
   "district": "左營區",
   "address": "翠峰路2號",
   "longitude": 120.289979,
   "latitude": 22.671351
 },
 {
   "postalCode": 80144,
   "cbNumber": "004116-8",
   "pNumber": 800016,
   "name": "高雄社東郵局",
   "cName": "高雄16支",
   "city": "高雄市",
   "district": "前金區",
   "address": "自強二路104之1號",
   "longitude": 120.295049,
   "latitude": 22.626285
 },
 {
   "postalCode": 80758,
   "cbNumber": "004117-1",
   "pNumber": 800017,
   "name": "高雄德智郵局",
   "cName": "高雄17支",
   "city": "高雄市",
   "district": "三民區",
   "address": "熱河一街84、86號",
   "longitude": 120.311184,
   "latitude": 22.643484
 },
 {
   "postalCode": 80662,
   "cbNumber": "004118-5",
   "pNumber": 800018,
   "name": "前鎮郵局",
   "cName": "高雄18支",
   "city": "高雄市",
   "district": "前鎮區",
   "address": "前鎮街92號",
   "longitude": 120.306298,
   "latitude": 22.588881
 },
 {
   "postalCode": 80203,
   "cbNumber": "004119-9",
   "pNumber": 800019,
   "name": "高雄市府郵局",
   "cName": "高雄19支",
   "city": "高雄市",
   "district": "苓雅區",
   "address": "四維三路2號(市政大樓1樓)",
   "longitude": 120.311829,
   "latitude": 22.621206
 },
 {
   "postalCode": 80445,
   "cbNumber": "004120-1",
   "pNumber": 800020,
   "name": "高雄鼓岩郵局",
   "cName": "高雄20支",
   "city": "高雄市",
   "district": "鼓山區",
   "address": "鼓山二路166-12、13號",
   "longitude": 120.280834,
   "latitude": 22.637285
 },
 {
   "postalCode": 80655,
   "cbNumber": "004121-4",
   "pNumber": 800021,
   "name": "高雄廣澤郵局",
   "cName": "高雄21支",
   "city": "高雄市",
   "district": "前鎮區",
   "address": "三多三路139號",
   "longitude": 120.310576,
   "latitude": 22.615817
 },
 {
   "postalCode": 80341,
   "cbNumber": "004123-1",
   "pNumber": 800023,
   "name": "高雄府北郵局",
   "cName": "高雄23支",
   "city": "高雄市",
   "district": "鹽埕區",
   "address": "七賢二路470號",
   "longitude": 120.284484,
   "latitude": 22.629574
 },
 {
   "postalCode": 80749,
   "cbNumber": "004124-5",
   "pNumber": 800024,
   "name": "高雄三塊厝郵局",
   "cName": "高雄24支",
   "city": "高雄市",
   "district": "三民區",
   "address": "中華三路270號",
   "longitude": 120.293602,
   "latitude": 22.635601
 },